{"staJson":[{"index":"a","list":[{"poiid":"B01C30K1JT","index":"a","lon":126.995801,"initial":"ac","name":"阿城","pinyin":"acheng","lat":45.552087},{"poiid":"B01E20023T","index":"a","lon":119.947486,"initial":"aes","name":"阿尔山","pinyin":"aershan","lat":47.171716},{"poiid":"B0FFGIE6Q2","index":"a","lon":119.809541,"initial":"aesb","name":"阿尔山北","pinyin":"aershanbei","lat":47.284001},{"poiid":"B01DA14VS5","index":"a","lon":113.14242,"initial":"agt","name":"阿贵图","pinyin":"aguitu","lat":41.779372},{"poiid":"B01D80PRI0","index":"a","lon":109.860201,"initial":"abg","name":"艾不盖","pinyin":"aibugai","lat":41.52984},{"poiid":"B0FFFA306C","index":"a","lon":102.802723,"initial":"ad","name":"埃岱","pinyin":"aidai","lat":29.020131},{"poiid":"B01380ROJ4","index":"a","lon":114.546465,"initial":"ah","name":"艾河","pinyin":"aihe","lat":39.393589},{"poiid":"B0FFFDAMJ3","index":"a","lon":105.77678,"initial":"ajc","name":"艾家村","pinyin":"aijiacun","lat":37.158057},{"poiid":"B01A204BC5","index":"a","lon":121.755516,"initial":"aj","name":"阿金","pinyin":"ajin","lat":42.043415},{"poiid":"B03E500CNC","index":"a","lon":80.307801,"initial":"aks","name":"阿克苏","pinyin":"akesu","lat":41.144374},{"poiid":"B038C0M4DD","index":"a","lon":75.97761,"initial":"akt","name":"阿克陶","pinyin":"aketao","lat":39.166723},{"poiid":"B038D000D5","index":"a","lon":82.575853,"initial":"alsk","name":"阿拉山口","pinyin":"alashankou","lat":45.171611},{"poiid":"","index":"a","lon":101.031391,"initial":"alsm","name":"阿拉善盟","pinyin":"alashanmeng","lat":41.899954},{"poiid":"B01D600HM2","index":"a","lon":123.730015,"initial":"alh","name":"阿里河","pinyin":"alihe","lat":50.579663},{"poiid":"B01D60NS09","index":"a","lon":121.879982,"initial":"als","name":"阿龙山","pinyin":"alongshan","lat":51.68727},{"poiid":"B01C90LTIG","index":"a","lon":123.162301,"initial":"ame","name":"阿木尔","pinyin":"amuer","lat":52.863018},{"poiid":"B036E14W33","index":"a","lon":101.815714,"initial":"anz","name":"阿南庄","pinyin":"ananzhuang","lat":25.442425},{"poiid":"B01C700HF0","index":"a","lon":125.332162,"initial":"ad","name":"安达","pinyin":"anda","lat":46.396179},{"poiid":"B001C8UD2B","index":"a","lon":103.810783,"initial":"ad","name":"安德","pinyin":"ande","lat":30.875449},{"poiid":"B0FFFGNU8C","index":"a","lon":116.486978,"initial":"ad","name":"安定","pinyin":"anding","lat":39.618816},{"poiid":"B0380008NM","index":"a","lon":91.666078,"initial":"ad","name":"安多","pinyin":"anduo","lat":32.24895},{"poiid":"B01C400E19","index":"a","lon":123.812119,"initial":"aax","name":"昂昂溪","pinyin":"angangxi","lat":47.162022},{"poiid":"B01B40M7PZ","index":"a","lon":123.774762,"initial":"ag","name":"安广","pinyin":"anguang","lat":45.576675},{"poiid":"B02E10N0CK","index":"a","lon":111.098745,"initial":"ah","name":"安化","pinyin":"anhua","lat":28.035434},{"poiid":"B01C31CSL7","index":"a","lon":127.067613,"initial":"aj","name":"安家","pinyin":"anjia","lat":45.051647},{"poiid":"B0393000ZF","index":"a","lon":109.016397,"initial":"ak","name":"安康","pinyin":"ankang","lat":32.712921},{"poiid":"B03A51494A","index":"a","lon":106.808999,"initial":"aky","name":"安口窑","pinyin":"ankouyao","lat":35.235086},{"poiid":"B02C80003O","index":"a","lon":113.696127,"initial":"al","name":"安陆","pinyin":"anlu","lat":31.256988},{"poiid":"B01A300RM0","index":"a","lon":123.430059,"initial":"ap","name":"安平","pinyin":"anping","lat":41.167125},{"poiid":"B022C05XSG","index":"a","lon":117.066521,"initial":"aq","name":"安庆","pinyin":"anqing","lat":30.549402},{"poiid":"B01DC16G0R","index":"a","lon":119.324728,"initial":"aqg","name":"安庆沟","pinyin":"anqinggou","lat":42.408519},{"poiid":"B022C01FHW","index":"a","lon":116.820592,"initial":"aqx","name":"安庆西","pinyin":"anqingxi","lat":30.762721},{"poiid":"B0FFFQ2NEH","index":"a","lon":113.258623,"initial":"ar","name":"安仁","pinyin":"anren","lat":26.769469},{"poiid":"B019C0OE28","index":"a","lon":122.986081,"initial":"as","name":"鞍山","pinyin":"anshan","lat":41.113732},{"poiid":"B019C0OTAW","index":"a","lon":122.913495,"initial":"asx","name":"鞍山西","pinyin":"anshanxi","lat":41.116801},{"poiid":"B03550006O","index":"a","lon":105.94091,"initial":"as","name":"安顺","pinyin":"anshun","lat":26.227743},{"poiid":"B0FFH088PI","index":"a","lon":105.875461,"initial":"asx","name":"安顺西","pinyin":"anshunxi","lat":26.198389},{"poiid":"B0FFGLFF6H","index":"a","lon":111.710902,"initial":"at","name":"安塘","pinyin":"antang","lat":38.812732},{"poiid":"B00156CM96","index":"a","lon":121.158757,"initial":"atb","name":"安亭北","pinyin":"antingbei","lat":31.314427},{"poiid":"B059900058","index":"a","lon":128.910049,"initial":"at","name":"安图","pinyin":"antu","lat":43.115547},{"poiid":"B0FFFZRCIU","index":"a","lon":128.894345,"initial":"atx","name":"安图西","pinyin":"antuxi","lat":43.111057},{"poiid":"B017401FZN","index":"a","lon":114.339566,"initial":"ay","name":"安阳","pinyin":"anyang","lat":36.098945},{"poiid":"B01740NXYE","index":"a","lon":114.454742,"initial":"ayd","name":"安阳东","pinyin":"anyangdong","lat":36.083459},{"poiid":"B01DC16G0S","index":"a","lon":120.13113,"initial":"ah","name":"敖汉","pinyin":"aohan","lat":42.64232},{"poiid":"B024105DJP","index":"a","lon":120.544456,"initial":"aj","name":"鳌江","pinyin":"aojiang","lat":27.625193},{"poiid":"B0FFFVTA40","index":"a","lon":121.180917,"initial":"al","name":"敖来","pinyin":"aolai","lat":43.257307},{"poiid":"B0FFFYX4XO","index":"a","lon":123.025513,"initial":"albg","name":"敖力布告","pinyin":"aolibugao","lat":44.244838},{"poiid":"B01C50OGQM","index":"a","lon":129.265653,"initial":"at","name":"敖头","pinyin":"aotou","lat":44.526607},{"poiid":"B038C00225","index":"a","lon":76.222673,"initial":"ats","name":"阿图什","pinyin":"atushi","lat":39.720001},{"poiid":"B01D60NS8D","index":"a","lon":122.000083,"initial":"awn","name":"阿乌尼","pinyin":"awuni","lat":51.946243}]},{"index":"b","list":[{"poiid":"B03E600EL5","index":"b","lon":78.54726,"initial":"bc","name":"巴楚","pinyin":"bachu","lat":39.835579},{"poiid":"B02CE0PXSF","index":"b","lon":110.357817,"initial":"bd","name":"巴东","pinyin":"badong","lat":30.662827},{"poiid":"B01C40O8CF","index":"b","lon":124.786446,"initial":"bf","name":"八方","pinyin":"bafang","lat":48.414235},{"poiid":"B0FFFDAMIX","index":"b","lon":130.646236,"initial":"bhl","name":"八虎力","pinyin":"bahuli","lat":46.335024},{"poiid":"B01660MWSU","index":"b","lon":111.721347,"initial":"bbg","name":"白壁关","pinyin":"baibiguan","lat":37.143945},{"poiid":"B01B4009BJ","index":"b","lon":122.86166,"initial":"bc","name":"白城","pinyin":"baicheng","lat":45.615528},{"poiid":"B0FFFYX78S","index":"b","lon":116.089649,"initial":"bg","name":"白沟","pinyin":"baigou","lat":39.085924},{"poiid":"B035A0NAME","index":"b","lon":104.503501,"initial":"bg","name":"柏果","pinyin":"baiguo","lat":26.001018},{"poiid":"B03420PE43","index":"b","lon":102.602937,"initial":"bg","name":"白果","pinyin":"baiguo","lat":28.812945},{"poiid":"B05990005J","index":"b","lon":128.131205,"initial":"bh","name":"白河","pinyin":"baihe","lat":42.452987},{"poiid":"B03930P3NI","index":"b","lon":110.115089,"initial":"bhd","name":"白河东","pinyin":"baihedong","lat":32.804642},{"poiid":"B03930OANF","index":"b","lon":110.099182,"initial":"bhx","name":"白河县","pinyin":"baihexian","lat":32.833469},{"poiid":"B0FFFDEVSC","index":"b","lon":124.194436,"initial":"bhp","name":"白桦排","pinyin":"baihuapai","lat":50.248082},{"poiid":"B01380PF18","index":"b","lon":115.289727,"initial":"bj","name":"白涧","pinyin":"baijian","lat":39.646663},{"poiid":"B03B80M4CX","index":"b","lon":106.141762,"initial":"bjg","name":"白芨沟","pinyin":"baijigou","lat":39.119513},{"poiid":"B0FFFGPF3I","index":"b","lon":104.806689,"initial":"bjp","name":"白鸡坡","pinyin":"baijipo","lat":26.438595},{"poiid":"B01C317JP7","index":"b","lon":127.006426,"initial":"bkb","name":"白奎堡","pinyin":"baikuibao","lat":46.371738},{"poiid":"B01E20MXTQ","index":"b","lon":120.101618,"initial":"bl","name":"白狼","pinyin":"bailang","lat":47.049682},{"poiid":"B01380ROJ7","index":"b","lon":115.390397,"initial":"blx","name":"百里峡","pinyin":"bailixia","lat":39.686473},{"poiid":"B0FFGCGJLQ","index":"b","lon":109.253907,"initial":"bmj","name":"白马井","pinyin":"baimajing","lat":19.658836},{"poiid":"B013A0QMZ0","index":"b","lon":117.672013,"initial":"bq","name":"白旗","pinyin":"baiqi","lat":41.158814},{"poiid":"B01B50030P","index":"b","lon":125.002272,"initial":"bq","name":"白泉","pinyin":"baiquan","lat":42.926524},{"poiid":"B0308005KB","index":"b","lon":106.66371,"initial":"bs","name":"百色","pinyin":"baise","lat":23.887806},{"poiid":"","index":"b","lon":126.354904,"initial":"bs","name":"白山","pinyin":"baishan","lat":41.879008},{"poiid":"B01B7000OY","index":"b","lon":126.45926,"initial":"bss","name":"白山市","pinyin":"baishanshi","lat":41.953407},{"poiid":"B01C40OZLC","index":"b","lon":123.275725,"initial":"bsx","name":"白山乡","pinyin":"baishanxiang","lat":47.283337},{"poiid":"B036A171QP","index":"b","lon":103.868292,"initial":"bsp","name":"白沙坡","pinyin":"baishapo","lat":25.657272},{"poiid":"B01B00QDTG","index":"b","lon":127.559764,"initial":"bss","name":"白石山","pinyin":"baishishan","lat":43.582378},{"poiid":"B03420PE3Y","index":"b","lon":102.609972,"initial":"bsy","name":"白石岩","pinyin":"baishiyan","lat":28.758303},{"poiid":"B03940OYDF","index":"b","lon":106.082414,"initial":"bsj","name":"白水江","pinyin":"baishuijiang","lat":33.573571},{"poiid":"B036A0IX1H","index":"b","lon":104.002118,"initial":"bsz","name":"白水镇","pinyin":"baishuizhen","lat":25.660537},{"poiid":"B0FFFYX8WE","index":"b","lon":115.871375,"initial":"byd","name":"白洋淀","pinyin":"baiyangdian","lat":39.069644},{"poiid":"B01DE0NJ49","index":"b","lon":109.294363,"initial":"byh","name":"白彦花","pinyin":"baiyanhua","lat":40.627716},{"poiid":"B0FFGTI3BW","index":"b","lon":106.931246,"initial":"by","name":"百宜","pinyin":"baiyi","lat":26.818646},{"poiid":"","index":"b","lon":104.055453,"initial":"by","name":"白银","pinyin":"baiyin","lat":37.194086},{"poiid":"B01DA14AOW","index":"b","lon":113.186146,"initial":"bycg","name":"白音察干","pinyin":"baiyinchagan","lat":41.462563},{"poiid":"B01DF1592F","index":"b","lon":113.019376,"initial":"byhe","name":"白银哈尔","pinyin":"baiyinhaer","lat":42.11604},{"poiid":"B0FFGTF50X","index":"b","lon":118.45686,"initial":"byhn","name":"白音华南","pinyin":"baiyinhuanan","lat":44.771619},{"poiid":"B01E200C5O","index":"b","lon":121.44094,"initial":"byhs","name":"白音胡硕","pinyin":"baiyinhushuo","lat":45.015517},{"poiid":"B03AF0007Q","index":"b","lon":104.174419,"initial":"bys","name":"白银市","pinyin":"baiyinshi","lat":36.558778},{"poiid":"B0FFFGNWR3","index":"b","lon":120.837339,"initial":"bytl","name":"白音他拉","pinyin":"baiyintala","lat":43.079035},{"poiid":"B03AF0007O","index":"b","lon":104.097588,"initial":"byx","name":"白银西","pinyin":"baiyinxi","lat":36.546126},{"poiid":"B01D800BC4","index":"b","lon":109.957593,"initial":"byeb","name":"白云鄂博","pinyin":"baiyunebo","lat":41.773277},{"poiid":"B0FFHN72U3","index":"b","lon":121.248689,"initial":"bjt","name":"八角台","pinyin":"bajiaotai","lat":41.283842},{"poiid":"B01D80PRHT","index":"b","lon":109.77121,"initial":"bl","name":"坝梁","pinyin":"baliang","lat":41.091118},{"poiid":"B01D60NS0A","index":"b","lon":122.332998,"initial":"bl","name":"巴林","pinyin":"balin","lat":48.314712},{"poiid":"B019A05GKK","index":"b","lon":124.057663,"initial":"bmc","name":"八面城","pinyin":"bamiancheng","lat":43.20939},{"poiid":"B01C501P7F","index":"b","lon":130.543471,"initial":"bmt","name":"八面通","pinyin":"bamiantong","lat":44.923741},{"poiid":"B01380QGBG","index":"b","lon":115.256271,"initial":"bc","name":"板城","pinyin":"bancheng","lat":39.614309},{"poiid":"B01C60N1F4","index":"b","lon":130.316036,"initial":"bjh","name":"半截河","pinyin":"banjiehe","lat":46.947211},{"poiid":"B0FFFDTTDG","index":"b","lon":103.21058,"initial":"bmq","name":"班猫箐","pinyin":"banmaoqing","lat":24.933224},{"poiid":"B0FFFGPG6Z","index":"b","lon":127.539798,"initial":"bsh","name":"板石河","pinyin":"banshihe","lat":42.27945},{"poiid":"B001609WMZ","index":"b","lon":117.333,"initial":"bd","name":"宝坻","pinyin":"baodi","lat":39.713112},{"poiid":"B01380SGEF","index":"b","lon":115.480342,"initial":"bd","name":"保定","pinyin":"baoding","lat":38.86328},{"poiid":"B01380PVNY","index":"b","lon":115.601093,"initial":"bdd","name":"保定东","pinyin":"baodingdong","lat":38.862175},{"poiid":"B01FF0O2VH","index":"b","lon":119.061408,"initial":"bhs","name":"宝华山","pinyin":"baohuashan","lat":32.149397},{"poiid":"B039501FVN","index":"b","lon":107.151542,"initial":"bj","name":"宝鸡","pinyin":"baoji","lat":34.373805},{"poiid":"B0FFFDEATT","index":"b","lon":114.413956,"initial":"bj","name":"保健","pinyin":"baojian","lat":42.094781},{"poiid":"B03950QGI9","index":"b","lon":107.239132,"initial":"bjn","name":"宝鸡南","pinyin":"baojinan","lat":34.333345},{"poiid":"B01DB0037L","index":"b","lon":123.326601,"initial":"bk","name":"保康","pinyin":"baokang","lat":44.129181},{"poiid":"B01DA14VSC","index":"b","lon":113.151481,"initial":"blg","name":"宝拉格","pinyin":"baolage","lat":41.697368},{"poiid":"B01C50OGPF","index":"b","lon":129.977988,"initial":"bl","name":"宝林","pinyin":"baolin","lat":45.026971},{"poiid":"B01DB011N5","index":"b","lon":122.739343,"initial":"bls","name":"宝龙山","pinyin":"baolongshan","lat":44.030716},{"poiid":"B0FFFGR5HY","index":"b","lon":118.777173,"initial":"bmt","name":"宝木吐","pinyin":"baomutu","lat":43.637701},{"poiid":"B0FFGG7Y7J","index":"b","lon":132.201962,"initial":"bq","name":"宝清","pinyin":"baoqing","lat":46.35367},{"poiid":"B01D4005I9","index":"b","lon":130.521671,"initial":"bql","name":"宝泉岭","pinyin":"baoquanling","lat":47.430061},{"poiid":"B01D800BBF","index":"b","lon":109.840451,"initial":"bt","name":"包头","pinyin":"baotou","lat":40.604935},{"poiid":"B01D80QIJ2","index":"b","lon":109.745893,"initial":"btb","name":"包头北","pinyin":"baotoubei","lat":40.662219},{"poiid":"B01D800BC0","index":"b","lon":110.02239,"initial":"btd","name":"包头东","pinyin":"baotoudong","lat":40.570295},{"poiid":"B01D800BBE","index":"b","lon":109.754571,"initial":"btx","name":"包头西","pinyin":"baotouxi","lat":40.613119},{"poiid":"B03940OYDE","index":"b","lon":108.117147,"initial":"bs","name":"巴山","pinyin":"bashan","lat":32.256768},{"poiid":"B01DA14VS6","index":"b","lon":112.84628,"initial":"bsm","name":"八苏木","pinyin":"basumu","lat":40.951821},{"poiid":"B01DB00QIZ","index":"b","lon":121.063057,"initial":"bxt","name":"八仙筒","pinyin":"baxiantong","lat":43.201712},{"poiid":"B01DE00LO6","index":"b","lon":107.022419,"initial":"bygl","name":"巴彦高勒","pinyin":"bayangaole","lat":40.334446},{"poiid":"","index":"b","lon":108.050191,"initial":"byne","name":"巴彦淖尔","pinyin":"bayannaoer","lat":40.911201},{"poiid":"","index":"b","lon":86.196295,"initial":"byglmgzzz","name":"巴音郭楞蒙古自治州","pinyin":"bayinguolengmengguzizhizhou","lat":41.746784},{"poiid":"B01A114DVH","index":"b","lon":122.095301,"initial":"byq","name":"鲅鱼圈","pinyin":"bayuquan","lat":40.187786},{"poiid":"B033B0PH7P","index":"b","lon":106.766353,"initial":"bz","name":"巴中","pinyin":"bazhong","lat":31.873517},{"poiid":"B013C01C1F","index":"b","lon":116.375451,"initial":"bz","name":"霸州","pinyin":"bazhou","lat":39.120114},{"poiid":"B0FFFYX71X","index":"b","lon":116.353121,"initial":"bzx","name":"霸州西","pinyin":"bazhouxi","lat":39.092212},{"poiid":"B01C8005GR","index":"b","lon":126.513776,"initial":"ba","name":"北安","pinyin":"beian","lat":48.234738},{"poiid":"B01640ML47","index":"b","lon":112.891738,"initial":"bbq","name":"北板桥","pinyin":"beibanqiao","lat":35.65028},{"poiid":"B00170HVWI","index":"b","lon":106.431832,"initial":"bb","name":"北碚","pinyin":"beibei","lat":29.802087},{"poiid":"B014F01704","index":"b","lon":119.421563,"initial":"bdh","name":"北戴河","pinyin":"beidaihe","lat":39.852701},{"poiid":"B01A50TGVD","index":"b","lon":119.211111,"initial":"bd","name":"北磴","pinyin":"beideng","lat":40.73377},{"poiid":"B030B00BSB","index":"b","lon":109.129289,"initial":"bh","name":"北海","pinyin":"beihai","lat":21.452322},{"poiid":"B0FFF37GBM","index":"b","lon":113.263738,"initial":"bj","name":"北滘","pinyin":"beijiao","lat":22.915353},{"poiid":"B000A83C36","index":"b","lon":116.429891,"initial":"bj","name":"北京","pinyin":"beijing","lat":39.9025},{"poiid":"B000A350CB","index":"b","lon":116.485483,"initial":"bjd","name":"北京东","pinyin":"beijingdong","lat":39.90231},{"poiid":"B000A83AJN","index":"b","lon":116.379532,"initial":"bjn","name":"北京南","pinyin":"beijingnan","lat":39.864265},{"poiid":"B000A83M61","index":"b","lon":116.322155,"initial":"bjx","name":"北京西","pinyin":"beijingxi","lat":39.895445},{"poiid":"B0FFG85HZS","index":"b","lon":123.902633,"initial":"bjz","name":"北井子","pinyin":"beijingzi","lat":39.898107},{"poiid":"B0307018QF","index":"b","lon":110.32424,"initial":"bl","name":"北流","pinyin":"beiliu","lat":22.733404},{"poiid":"B013A0QGXR","index":"b","lon":117.604016,"initial":"bmqz","name":"北马圈子","pinyin":"beimaquanzi","lat":40.520444},{"poiid":"B01A50SVDO","index":"b","lon":120.819218,"initial":"bpn","name":"北票南","pinyin":"beipiaonan","lat":41.701293},{"poiid":"B0FFFVTB2B","index":"b","lon":118.877072,"initial":"btz","name":"北台子","pinyin":"beitaizi","lat":42.311921},{"poiid":"B0FFGSQN1Q","index":"b","lon":114.772127,"initial":"bt","name":"北屯","pinyin":"beitun","lat":39.35666},{"poiid":"B038A0LQNS","index":"b","lon":87.753291,"initial":"bts","name":"北屯市","pinyin":"beitunshi","lat":47.318779},{"poiid":"B01C31CSL8","index":"b","lon":126.997684,"initial":"byh","name":"背荫河","pinyin":"beiyinhe","lat":45.171172},{"poiid":"B000A9S6FS","index":"b","lon":116.568157,"initial":"bz","name":"北宅","pinyin":"beizhai","lat":40.337721},{"poiid":"B022800HZK","index":"b","lon":117.380833,"initial":"bb","name":"蚌埠","pinyin":"bengbu","lat":32.942216},{"poiid":"B02280N25O","index":"b","lon":117.443323,"initial":"bbn","name":"蚌埠南","pinyin":"bengbunan","lat":32.899123},{"poiid":"B01DA14VSD","index":"b","lon":113.257139,"initial":"bh","name":"贲红","pinyin":"benhong","lat":41.293834},{"poiid":"B019E006JR","index":"b","lon":123.758549,"initial":"bx","name":"本溪","pinyin":"benxi","lat":41.297236},{"poiid":"B0FFFY0XRH","index":"b","lon":123.676449,"initial":"bxxc","name":"本溪新城","pinyin":"benxixincheng","lat":41.48327},{"poiid":"B019F0P73S","index":"b","lon":124.377982,"initial":"bg","name":"边沟","pinyin":"biangou","lat":40.723897},{"poiid":"B0FFF03BCX","index":"b","lon":113.26314,"initial":"bj","name":"碧江","pinyin":"bijiang","lat":22.950252},{"poiid":"B01D50M1UO","index":"b","lon":131.001366,"initial":"bjs","name":"笔架山","pinyin":"bijiashan","lat":46.788213},{"poiid":"","index":"b","lon":105.373288,"initial":"bj","name":"毕节","pinyin":"bijie","lat":26.75569},{"poiid":"B0FFF3D6M4","index":"b","lon":120.879274,"initial":"bc","name":"栟茶","pinyin":"bingcha","lat":32.498366},{"poiid":"B00161C4GX","index":"b","lon":117.610362,"initial":"bh","name":"滨海","pinyin":"binhai","lat":39.080383},{"poiid":"B00161AKWU","index":"b","lon":117.765826,"initial":"bhb","name":"滨海北","pinyin":"binhaibei","lat":39.238866},{"poiid":"B0FFFYG2ME","index":"b","lon":108.107418,"initial":"bx","name":"彬县","pinyin":"binxian","lat":35.04472},{"poiid":"B03030XBRB","index":"b","lon":109.099041,"initial":"by","name":"宾阳","pinyin":"binyang","lat":23.223941},{"poiid":"B021F0POTP","index":"b","lon":118.01809,"initial":"bz","name":"滨州","pinyin":"binzhou","lat":37.45426},{"poiid":"B0FFFYTADF","index":"b","lon":106.225205,"initial":"bs","name":"璧山","pinyin":"bishan","lat":29.504105},{"poiid":"B01C90LX0L","index":"b","lon":124.614314,"initial":"bz","name":"碧州","pinyin":"bizhou","lat":51.950226},{"poiid":"B07660LM3B","index":"b","lon":110.48246,"initial":"ba","name":"博鳌","pinyin":"boao","lat":19.145649},{"poiid":"B0FFFZRI4A","index":"b","lon":109.993271,"initial":"bb","name":"博白","pinyin":"bobai","lat":22.22968},{"poiid":"","index":"b","lon":82.649133,"initial":"betlmgzzz","name":"博尔塔拉蒙古自治州","pinyin":"boertalamengguzizhizhou","lat":44.944289},{"poiid":"B01D601K4V","index":"b","lon":121.919427,"initial":"bkt","name":"博克图","pinyin":"boketu","lat":48.753902},{"poiid":"B038D000Y6","index":"b","lon":82.649133,"initial":"bl","name":"博乐","pinyin":"bole","lat":44.944289},{"poiid":"B01D0001QV","index":"b","lon":130.559114,"initial":"bl","name":"勃利","pinyin":"boli","lat":45.757643},{"poiid":"B013D0058N","index":"b","lon":116.589106,"initial":"bt","name":"泊头","pinyin":"botou","lat":38.066169},{"poiid":"B021F03NPR","index":"b","lon":118.143186,"initial":"bx","name":"博兴","pinyin":"boxing","lat":37.135211},{"poiid":"B022E03T1C","index":"b","lon":115.79824,"initial":"bz","name":"亳州","pinyin":"bozhou","lat":33.849383},{"poiid":"B01E20N02B","index":"b","lon":121.423857,"initial":"bdh","name":"布敦化","pinyin":"budunhua","lat":44.957406},{"poiid":"B0FFF4HPNN","index":"b","lon":125.629187,"initial":"bh","name":"布海","pinyin":"buhai","lat":44.383873},{"poiid":"B0FFHEGCZR","index":"b","lon":113.28854,"initial":"bzw","name":"堡子湾","pinyin":"buziwan","lat":40.334556}]},{"index":"c","list":[{"poiid":"B01B600IWA","index":"c","lon":126.137876,"initial":"cjg","name":"蔡家沟","pinyin":"caijiagou","lat":45.121871},{"poiid":"B039501TCL","index":"c","lon":107.597235,"initial":"cjp","name":"蔡家坡","pinyin":"caijiapo","lat":34.320688},{"poiid":"B0FFFDKXEZ","index":"c","lon":115.787723,"initial":"cs","name":"蔡山","pinyin":"caishan","lat":29.896025},{"poiid":"B024105HFT","index":"c","lon":120.4167,"initial":"cn","name":"苍南","pinyin":"cangnan","lat":27.531368},{"poiid":"B019D0ORL8","index":"c","lon":124.519147,"initial":"cs","name":"苍石","pinyin":"cangshi","lat":41.988024},{"poiid":"B0FFG40NHL","index":"c","lon":105.91543,"initial":"cx","name":"苍溪","pinyin":"cangxi","lat":31.760354},{"poiid":"B013D0041T","index":"c","lon":116.879449,"initial":"cz","name":"沧州","pinyin":"cangzhou","lat":38.312367},{"poiid":"B013D0MNOY","index":"c","lon":116.762,"initial":"czx","name":"沧州西","pinyin":"cangzhouxi","lat":38.293209},{"poiid":"B03590P9MP","index":"c","lon":104.254429,"initial":"ch","name":"草海","pinyin":"caohai","lat":26.879839},{"poiid":"B019E00MXM","index":"c","lon":123.911077,"initial":"chk","name":"草河口","pinyin":"caohekou","lat":40.878713},{"poiid":"B0FFFGNWTE","index":"c","lon":118.779608,"initial":"cjyz","name":"曹家营子","pinyin":"caojiayingzi","lat":42.339055},{"poiid":"B019D00P8H","index":"c","lon":125.239827,"initial":"cs","name":"草市","pinyin":"caoshi","lat":42.298635},{"poiid":"B0212047AE","index":"c","lon":115.582447,"initial":"cx","name":"曹县","pinyin":"caoxian","lat":34.826397},{"poiid":"B0FFFVSG8B","index":"c","lon":105.571406,"initial":"ch","name":"册亨","pinyin":"ceheng","lat":24.913573},{"poiid":"B03060MDZO","index":"c","lon":110.94642,"initial":"cx","name":"岑溪","pinyin":"cenxi","lat":22.902775},{"poiid":"B01DC0I5J1","index":"c","lon":120.072231,"initial":"cbg","name":"查布嘎","pinyin":"chabuga","lat":43.857359},{"poiid":"B0FFFJU1DG","index":"c","lon":112.25679,"initial":"cgtg","name":"查干特格","pinyin":"chagantege","lat":43.366337},{"poiid":"B01390QEJM","index":"c","lon":114.415415,"initial":"cgb","name":"柴沟堡","pinyin":"chaigoubu","lat":40.671364},{"poiid":"B01C501NR9","index":"c","lon":129.686986,"initial":"ch","name":"柴河","pinyin":"chaihe","lat":44.766819},{"poiid":"B0FFFQ2NE0","index":"c","lon":113.525279,"initial":"cln","name":"茶陵南","pinyin":"chalingnan","lat":26.738451},{"poiid":"B03AF00F9E","index":"c","lon":104.120642,"initial":"cc","name":"长城","pinyin":"changcheng","lat":37.314454},{"poiid":"B01AF0ZDGL","index":"c","lon":125.323952,"initial":"cc","name":"长春","pinyin":"changchun","lat":43.910758},{"poiid":"B01AF0ZYJP","index":"c","lon":125.201248,"initial":"ccx","name":"长春西","pinyin":"changchunxi","lat":43.878534},{"poiid":"B02E001IYT","index":"c","lon":111.694544,"initial":"cd","name":"常德","pinyin":"changde","lat":29.072318},{"poiid":"B019F0OTH3","index":"c","lon":124.811491,"initial":"cd","name":"长甸","pinyin":"changdian","lat":40.481798},{"poiid":"B01C60MZDC","index":"c","lon":130.483337,"initial":"cft","name":"长发屯","pinyin":"changfatun","lat":46.734542},{"poiid":"B017600NYC","index":"c","lon":113.780086,"initial":"cg","name":"长葛","pinyin":"changge","lat":34.208539},{"poiid":"B019F0P73T","index":"c","lon":123.988478,"initial":"ch","name":"长虹","pinyin":"changhong","lat":40.582736},{"poiid":"B02180I2XD","index":"c","lon":118.837911,"initial":"cl","name":"昌乐","pinyin":"changle","lat":36.711217},{"poiid":"B014F06NQK","index":"c","lon":119.167728,"initial":"cl","name":"昌黎","pinyin":"changli","lat":39.70411},{"poiid":"B0FFG4OOG4","index":"c","lon":117.480707,"initial":"clh","name":"长临河","pinyin":"changlinhe","lat":31.699666},{"poiid":"B0FFFD6L5E","index":"c","lon":105.69216,"initial":"cn","name":"长农","pinyin":"changnong","lat":37.269531},{"poiid":"B03018N5IK","index":"c","lon":114.005032,"initial":"cp","name":"常平","pinyin":"changping","lat":22.984623},{"poiid":"B000A7H4N2","index":"c","lon":116.227626,"initial":"cpb","name":"昌平北","pinyin":"changpingbei","lat":40.231478},{"poiid":"B0FFGPBXHH","index":"c","lon":114.041286,"initial":"cpd","name":"常平东","pinyin":"changpingdong","lat":22.962245},{"poiid":"B0FFFGQ5MM","index":"c","lon":103.917455,"initial":"cpl","name":"长坡岭","pinyin":"changpoling","lat":24.835426},{"poiid":"B0FFFPWUN2","index":"c","lon":107.752065,"initial":"cqq","name":"长庆桥","pinyin":"changqingqiao","lat":35.315063},{"poiid":"B02DB0696H","index":"c","lon":113.014328,"initial":"cs","name":"长沙","pinyin":"changsha","lat":28.19254},{"poiid":"B02DB07MDA","index":"c","lon":113.066075,"initial":"csn","name":"长沙南","pinyin":"changshanan","lat":28.149358},{"poiid":"B01B6005IJ","index":"c","lon":124.477759,"initial":"cst","name":"长山屯","pinyin":"changshantun","lat":45.307629},{"poiid":"B00179B2Z1","index":"c","lon":107.084124,"initial":"csb","name":"长寿北","pinyin":"changshoubei","lat":29.880444},{"poiid":"B0FFH5D63F","index":"c","lon":107.204513,"initial":"csh","name":"长寿湖","pinyin":"changshouhu","lat":29.965627},{"poiid":"B0FFFYX3ZZ","index":"c","lon":116.35738,"initial":"ctn","name":"长汀南","pinyin":"changtingnan","lat":25.765692},{"poiid":"B01C50O2LV","index":"c","lon":128.9355,"initial":"ctz","name":"长汀镇","pinyin":"changtingzhen","lat":44.466868},{"poiid":"B019A05917","index":"c","lon":124.112785,"initial":"ct","name":"昌图","pinyin":"changtu","lat":42.777515},{"poiid":"B019A0SA5D","index":"c","lon":124.066796,"initial":"ctx","name":"昌图西","pinyin":"changtuxi","lat":42.778901},{"poiid":"B0FFGOF6D9","index":"c","lon":107.829602,"initial":"cw","name":"长武","pinyin":"changwu","lat":35.267537},{"poiid":"B0FFF00W8O","index":"c","lon":119.974998,"initial":"cx","name":"长兴","pinyin":"changxing","lat":31.041315},{"poiid":"B023C02MFZ","index":"c","lon":119.902824,"initial":"cxn","name":"长兴南","pinyin":"changxingnan","lat":30.990466},{"poiid":"B017500RAG","index":"c","lon":114.659443,"initial":"cy","name":"长垣","pinyin":"changyuan","lat":35.21147},{"poiid":"B03AF000JS","index":"c","lon":104.843397,"initial":"cz","name":"长征","pinyin":"changzheng","lat":36.725214},{"poiid":"B01630038Z","index":"c","lon":113.07213,"initial":"cz","name":"长治","pinyin":"changzhi","lat":36.19154},{"poiid":"B01630004A","index":"c","lon":113.124366,"initial":"czb","name":"长治北","pinyin":"changzhibei","lat":36.302208},{"poiid":"B0FFF5U99B","index":"c","lon":119.973304,"initial":"cz","name":"常州","pinyin":"changzhou","lat":31.784567},{"poiid":"B02070R94R","index":"c","lon":119.962136,"initial":"czb","name":"常州北","pinyin":"changzhoubei","lat":31.851257},{"poiid":"B027A0NM46","index":"c","lon":117.893398,"initial":"cz","name":"常庄","pinyin":"changzhuang","lat":36.324968},{"poiid":"B02350ODBZ","index":"c","lon":117.894999,"initial":"ch","name":"巢湖","pinyin":"chaohu","lat":31.614232},{"poiid":"B0FFFRXO5T","index":"c","lon":117.925042,"initial":"chd","name":"巢湖东","pinyin":"chaohudong","lat":31.61844},{"poiid":"B013A0QJ7N","index":"c","lon":117.695756,"initial":"clg","name":"超梁沟","pinyin":"chaolianggou","lat":41.232968},{"poiid":"B03000MXLA","index":"c","lon":116.593092,"initial":"cs","name":"潮汕","pinyin":"chaoshan","lat":23.541935},{"poiid":"B01C80MKX5","index":"c","lon":127.377025,"initial":"cs","name":"潮水","pinyin":"chaoshui","lat":49.738255},{"poiid":"B034701NPH","index":"c","lon":105.878681,"initial":"ct","name":"朝天","pinyin":"chaotian","lat":32.639898},{"poiid":"B02F20OQ5Y","index":"c","lon":116.426962,"initial":"cy","name":"潮阳","pinyin":"chaoyang","lat":23.383309},{"poiid":"B01A505C2N","index":"c","lon":120.441964,"initial":"cy","name":"朝阳","pinyin":"chaoyang","lat":41.581442},{"poiid":"B05990MSYV","index":"c","lon":129.389,"initial":"cyc","name":"朝阳川","pinyin":"chaoyangchuan","lat":42.875843},{"poiid":"B01D60NS00","index":"c","lon":124.328549,"initial":"cyc","name":"朝阳村","pinyin":"chaoyangcun","lat":50.02606},{"poiid":"B0FFFH8Q5V","index":"c","lon":118.225963,"initial":"cyd","name":"朝阳地","pinyin":"chaoyangdi","lat":42.024752},{"poiid":"B01B30MV2R","index":"c","lon":126.027693,"initial":"cyz","name":"朝阳镇","pinyin":"chaoyangzhen","lat":42.684516},{"poiid":"B01D60NS0R","index":"c","lon":121.370809,"initial":"cz","name":"朝中","pinyin":"chaozhong","lat":50.917227},{"poiid":"B030000DPY","index":"c","lon":116.581547,"initial":"cz","name":"潮州","pinyin":"chaozhou","lat":23.637635},{"poiid":"B01D7020JG","index":"c","lon":111.127464,"initial":"csq","name":"察素齐","pinyin":"chasuqi","lat":40.705259},{"poiid":"B05990MSVK","index":"c","lon":129.013322,"initial":"ctg","name":"茶条沟","pinyin":"chatiaogou","lat":43.042389},{"poiid":"B013A00AAY","index":"c","lon":117.950638,"initial":"cd","name":"承德","pinyin":"chengde","lat":40.967565},{"poiid":"B013A0QGYF","index":"c","lon":117.989735,"initial":"cdd","name":"承德东","pinyin":"chengdedong","lat":40.889629},{"poiid":"B001C7XBE0","index":"c","lon":104.075756,"initial":"cd","name":"成都","pinyin":"chengdu","lat":30.697417},{"poiid":"B001C80DL2","index":"c","lon":104.14298,"initial":"cdd","name":"成都东","pinyin":"chengdudong","lat":30.630828},{"poiid":"B001C8WIJI","index":"c","lon":104.068551,"initial":"cdn","name":"成都南","pinyin":"chengdunan","lat":30.606702},{"poiid":"B01C30J3VQ","index":"c","lon":126.842861,"initial":"cgz","name":"成高子","pinyin":"chenggaozi","lat":45.69796},{"poiid":"B0394003P6","index":"c","lon":107.329151,"initial":"cg","name":"城固","pinyin":"chenggu","lat":33.142426},{"poiid":"B01D60NS0B","index":"c","lon":122.839205,"initial":"cjsh","name":"成吉思汗","pinyin":"chengjisihan","lat":47.74899},{"poiid":"","index":"c","lon":110.117719,"initial":"cmx","name":"澄迈县","pinyin":"chengmaixian","lat":19.931601},{"poiid":"B03A30YRWA","index":"c","lon":103.659285,"initial":"cgy","name":"陈官营","pinyin":"chenguanying","lat":36.086179},{"poiid":"B019B137OG","index":"c","lon":122.47714,"initial":"czt","name":"城子坦","pinyin":"chengzitan","lat":39.494236},{"poiid":"B01CA0M7E6","index":"c","lon":129.490298,"initial":"cm","name":"晨明","pinyin":"chenming","lat":46.969784},{"poiid":"B0FFFGPG8Y","index":"c","lon":127.239859,"initial":"cq","name":"辰清","pinyin":"chenqing","lat":49.140325},{"poiid":"B02E90QJM4","index":"c","lon":110.255477,"initial":"cx","name":"辰溪","pinyin":"chenxi","lat":27.87684},{"poiid":"B00180JB2D","index":"c","lon":123.531672,"initial":"cxt","name":"陈相屯","pinyin":"chenxiangtun","lat":41.565148},{"poiid":"B02DF00W66","index":"c","lon":113.035009,"initial":"cz","name":"郴州","pinyin":"chenzhou","lat":25.803005},{"poiid":"B02DF01FYJ","index":"c","lon":112.969174,"initial":"czx","name":"郴州西","pinyin":"chenzhouxi","lat":25.737826},{"poiid":"B036A171QQ","index":"c","lon":104.152386,"initial":"czw","name":"车转湾","pinyin":"chezhuanwan","lat":25.693867},{"poiid":"B02CB00306","index":"c","lon":113.933086,"initial":"cb","name":"赤壁","pinyin":"chibi","lat":29.720938},{"poiid":"B02CB01NL8","index":"c","lon":113.899905,"initial":"cbb","name":"赤壁北","pinyin":"chibibei","lat":29.738315},{"poiid":"B01DC001VD","index":"c","lon":118.956495,"initial":"cf","name":"赤峰","pinyin":"chifeng","lat":42.255721},{"poiid":"B01DC16G2L","index":"c","lon":119.054419,"initial":"cfd","name":"赤峰东","pinyin":"chifengdong","lat":42.286011},{"poiid":"B01DC001VA","index":"c","lon":118.910353,"initial":"cfx","name":"赤峰西","pinyin":"chifengxi","lat":42.268923},{"poiid":"B023600IBY","index":"c","lon":117.524554,"initial":"cz","name":"池州","pinyin":"chizhou","lat":30.61901},{"poiid":"B00170AOPA","index":"c","lon":106.547005,"initial":"cq","name":"重庆","pinyin":"chongqing","lat":29.549607},{"poiid":"B001781ZYX","index":"c","lon":106.553357,"initial":"cqb","name":"重庆北","pinyin":"chongqingbei","lat":29.608432},{"poiid":"B0FFH0LKDF","index":"c","lon":106.892265,"initial":"cx","name":"崇信","pinyin":"chongxin","lat":35.311325},{"poiid":"B06EB002JM","index":"c","lon":107.357918,"initial":"cz","name":"崇左","pinyin":"chongzuo","lat":22.403195},{"poiid":"B01AD14P8M","index":"c","lon":120.424938,"initial":"czg","name":"串子沟","pinyin":"chuanzigou","lat":40.728551},{"poiid":"B01DF14FHL","index":"c","lon":112.609766,"initial":"clt","name":"楚鲁图","pinyin":"chulutu","lat":42.8352},{"poiid":"B01D60NS0G","index":"c","lon":124.492412,"initial":"ctg","name":"春亭阁","pinyin":"chuntingge","lat":49.790993},{"poiid":"B05990MT10","index":"c","lon":129.447198,"initial":"cy","name":"春阳","pinyin":"chunyang","lat":43.714098},{"poiid":"B01C50OGPE","index":"c","lon":130.024707,"initial":"cs","name":"楚山","pinyin":"chushan","lat":45.118603},{"poiid":"B036E001SJ","index":"c","lon":101.544099,"initial":"cx","name":"楚雄","pinyin":"chuxiong","lat":25.050929},{"poiid":"","index":"c","lon":102.06335,"initial":"cxyzzzz","name":"楚雄彝族自治州","pinyin":"chuxiongyizuzizhizhou","lat":25.119958},{"poiid":"B02260QMXO","index":"c","lon":118.317899,"initial":"cz","name":"滁州","pinyin":"chuzhou","lat":32.198718},{"poiid":"B022604MS2","index":"c","lon":118.324747,"initial":"czb","name":"滁州北","pinyin":"chuzhoubei","lat":32.311795},{"poiid":"B035A0NJD9","index":"c","lon":105.109099,"initial":"cc","name":"茨冲","pinyin":"cichong","lat":26.492207},{"poiid":"B02E800EFD","index":"c","lon":111.120784,"initial":"cl","name":"慈利","pinyin":"cili","lat":29.415711},{"poiid":"B01360NXZC","index":"c","lon":114.117801,"initial":"cs","name":"磁山","pinyin":"cishan","lat":36.596094},{"poiid":"B013601788","index":"c","lon":114.372358,"initial":"cx","name":"磁县","pinyin":"cixian","lat":36.364144},{"poiid":"B021A02AHE","index":"c","lon":117.107349,"initial":"cy","name":"磁窑","pinyin":"ciyao","lat":35.898693},{"poiid":"B0FFFH181P","index":"c","lon":109.11587,"initial":"cj","name":"从江","pinyin":"congjiang","lat":25.909835},{"poiid":"B0FFFVTCG9","index":"c","lon":124.268191,"initial":"cf","name":"翠峰","pinyin":"cuifeng","lat":50.620481},{"poiid":"B01C90LX0M","index":"c","lon":124.69306,"initial":"cg","name":"翠岗","pinyin":"cuigang","lat":52.042537},{"poiid":"B00161A56K","index":"c","lon":117.199057,"initial":"chk","name":"崔黄口","pinyin":"cuihuangkou","lat":39.518669},{"poiid":"B01D60NS0C","index":"c","lon":118.100419,"initial":"cg","name":"嵯岗","pinyin":"cuogang","lat":49.256225}]},{"index":"d","list":[{"poiid":"B01B400BSI","index":"d","lon":124.238217,"initial":"dab","name":"大安北","pinyin":"daanbei","lat":45.517172},{"poiid":"B03B90MKL7","index":"d","lon":105.933644,"initial":"db","name":"大坝","pinyin":"daba","lat":38.025236},{"poiid":"B01DC0I3AX","index":"d","lon":118.634222,"initial":"db","name":"大板","pinyin":"daban","lat":43.521871},{"poiid":"B019F0P74B","index":"d","lon":124.24959,"initial":"db","name":"大堡","pinyin":"dabao","lat":40.550667},{"poiid":"B02F10173D","index":"d","lon":116.583792,"initial":"db","name":"大埔","pinyin":"dabu","lat":24.413657},{"poiid":"B078F13ZFT","index":"d","lon":102.999641,"initial":"dcg","name":"打柴沟","pinyin":"dachaigou","lat":37.086984},{"poiid":"B0FFFDEG1S","index":"d","lon":106.350623,"initial":"ddg","name":"大磴沟","pinyin":"dadenggou","lat":39.194266},{"poiid":"B01B70M95L","index":"d","lon":126.776544,"initial":"dd","name":"大东","pinyin":"dadong","lat":42.078275},{"poiid":"B0FFHEICLT","index":"d","lon":105.568022,"initial":"dfn","name":"大方南","pinyin":"dafangnan","lat":27.117519},{"poiid":"B019D006IQ","index":"d","lon":123.871052,"initial":"dgt","name":"大官屯","pinyin":"daguantun","lat":41.856703},{"poiid":"B0FFG83XS1","index":"d","lon":123.585503,"initial":"dgs","name":"大孤山","pinyin":"dagushan","lat":39.936605},{"poiid":"B00181DSSK","index":"d","lon":122.608106,"initial":"dhq","name":"大红旗","pinyin":"dahongqi","lat":41.871131},{"poiid":"B000A9NILQ","index":"d","lon":116.127698,"initial":"dhc","name":"大灰厂","pinyin":"dahuichang","lat":39.851586},{"poiid":"B01A00HSHT","index":"d","lon":122.152743,"initial":"dhs","name":"大虎山","pinyin":"dahushan","lat":41.615191},{"poiid":"B01CA005CM","index":"d","lon":129.021261,"initial":"dl","name":"带岭","pinyin":"dailing","lat":47.023213},{"poiid":"B034101E7Z","index":"d","lon":103.460526,"initial":"dw","name":"代湾","pinyin":"daiwan","lat":29.314661},{"poiid":"B015E011A5","index":"d","lon":112.984974,"initial":"dx","name":"代县","pinyin":"daixian","lat":39.077147},{"poiid":"B015D001V6","index":"d","lon":112.827119,"initial":"dy","name":"岱岳","pinyin":"daiyue","lat":39.521201},{"poiid":"B01AF1244M","index":"d","lon":125.822751,"initial":"djg","name":"达家沟","pinyin":"dajiagou","lat":44.659736},{"poiid":"B01600MZKG","index":"d","lon":114.30431,"initial":"dj","name":"大涧","pinyin":"dajian","lat":39.479725},{"poiid":"B0FFGDYJN5","index":"d","lon":101.109984,"initial":"dj","name":"大苴","pinyin":"daju","lat":25.336703},{"poiid":"B01B00Q9OQ","index":"d","lon":126.576397,"initial":"dkq","name":"大口钦","pinyin":"dakouqin","lat":44.162585},{"poiid":"B001612C1M","index":"d","lon":117.264419,"initial":"dkt","name":"大口屯","pinyin":"dakoutun","lat":39.604079},{"poiid":"B01D60NRZ5","index":"d","lon":124.788891,"initial":"dlb","name":"达拉滨","pinyin":"dalabin","lat":49.665595},{"poiid":"B0FFG2J1Y2","index":"d","lon":109.896648,"initial":"dltx","name":"达拉特西","pinyin":"dalatexi","lat":40.374382},{"poiid":"B0FFGBEZW8","index":"d","lon":109.925543,"initial":"dl","name":"大荔","pinyin":"dali","lat":34.834809},{"poiid":"B03680030R","index":"d","lon":100.248982,"initial":"dl","name":"大理","pinyin":"dali","lat":25.588515},{"poiid":"B019B0AEL6","index":"d","lon":121.632535,"initial":"dl","name":"大连","pinyin":"dalian","lat":38.922456},{"poiid":"B019B0YRNW","index":"d","lon":121.607284,"initial":"dlb","name":"大连北","pinyin":"dalianbei","lat":39.015932},{"poiid":"","index":"d","lon":100.771194,"initial":"dlbzzzz","name":"大理白族自治州","pinyin":"dalibaizuzizhizhou","lat":25.399268},{"poiid":"B01DB0NDQM","index":"d","lon":122.807665,"initial":"dl","name":"大林","pinyin":"dalin","lat":43.715626},{"poiid":"B01DA14VVM","index":"d","lon":113.300041,"initial":"dlh","name":"大陆号","pinyin":"daluhao","lat":41.228174},{"poiid":"B01C40OZLD","index":"d","lon":123.961659,"initial":"dmt","name":"大民屯","pinyin":"damintun","lat":47.255315},{"poiid":"B019F009PM","index":"d","lon":124.385492,"initial":"dd","name":"丹东","pinyin":"dandong","lat":40.125142},{"poiid":"B0FFG8IRYS","index":"d","lon":124.262391,"initial":"ddx","name":"丹东西","pinyin":"dandongxi","lat":39.999566},{"poiid":"B0392002WF","index":"d","lon":110.354311,"initial":"df","name":"丹凤","pinyin":"danfeng","lat":33.67998},{"poiid":"B022D024CD","index":"d","lon":116.330347,"initial":"ds","name":"砀山","pinyin":"dangshan","lat":34.416522},{"poiid":"B0FFG3AGCU","index":"d","lon":116.302489,"initial":"dsn","name":"砀山南","pinyin":"dangshannan","lat":34.386431},{"poiid":"B0FFFYT38B","index":"d","lon":118.526648,"initial":"dtd","name":"当涂东","pinyin":"dangtudong","lat":31.566108},{"poiid":"B037B021QE","index":"d","lon":91.106546,"initial":"dx","name":"当雄","pinyin":"dangxiong","lat":30.471859},{"poiid":"B02CD0PQ9M","index":"d","lon":111.81677,"initial":"dy","name":"当阳","pinyin":"dangyang","lat":30.848282},{"poiid":"B01FF0272Q","index":"d","lon":119.520861,"initial":"dt","name":"丹徒","pinyin":"dantu","lat":32.116082},{"poiid":"B01FF02BE7","index":"d","lon":119.592827,"initial":"dy","name":"丹阳","pinyin":"danyang","lat":32.001688},{"poiid":"B01FF0NUWN","index":"d","lon":119.657603,"initial":"dyb","name":"丹阳北","pinyin":"danyangbei","lat":32.027594},{"poiid":"","index":"d","lon":109.489487,"initial":"dz","name":"儋州","pinyin":"danzhou","lat":19.790108},{"poiid":"B01A50TGY3","index":"d","lon":119.121922,"initial":"ded","name":"刀尔登","pinyin":"daoerdeng","lat":40.748652},{"poiid":"B01B700224","index":"d","lon":126.287623,"initial":"dq","name":"道清","pinyin":"daoqing","lat":41.842652},{"poiid":"B02EA0MY42","index":"d","lon":111.569764,"initial":"dz","name":"道州","pinyin":"daozhou","lat":25.513165},{"poiid":"B0FFFDS8RA","index":"d","lon":115.094638,"initial":"dps","name":"大盘石","pinyin":"dapanshi","lat":39.42757},{"poiid":"B01A50TGUO","index":"d","lon":120.169837,"initial":"dpf","name":"大平房","pinyin":"dapingfang","lat":41.436537},{"poiid":"B01CB00D94","index":"d","lon":125.012565,"initial":"dq","name":"大庆","pinyin":"daqing","lat":46.59809},{"poiid":"B0FFG15F1X","index":"d","lon":125.124644,"initial":"dqd","name":"大庆东","pinyin":"daqingdong","lat":46.531994},{"poiid":"B0FFFJU1DK","index":"d","lon":122.188378,"initial":"dqg","name":"大青沟","pinyin":"daqinggou","lat":42.851947},{"poiid":"B01CB0O39C","index":"d","lon":124.887343,"initial":"dqx","name":"大庆西","pinyin":"daqingxi","lat":46.657086},{"poiid":"B01A1005O3","index":"d","lon":122.505172,"initial":"dsq","name":"大石桥","pinyin":"dashiqiao","lat":40.645675},{"poiid":"B05990MSV8","index":"d","lon":128.500993,"initial":"dst","name":"大石头","pinyin":"dashitou","lat":43.305194},{"poiid":"B01E20136X","index":"d","lon":121.384105,"initial":"dsz","name":"大石寨","pinyin":"dashizhai","lat":46.313375},{"poiid":"B0FFFDA6VH","index":"d","lon":104.719956,"initial":"dtb","name":"大田边","pinyin":"datianbian","lat":25.216519},{"poiid":"B0160002SA","index":"d","lon":113.302983,"initial":"dt","name":"大同","pinyin":"datong","lat":40.122266},{"poiid":"B0FFFAGTIT","index":"d","lon":101.675178,"initial":"dtx","name":"大通西","pinyin":"datongxi","lat":36.965268},{"poiid":"B01AF0C79E","index":"d","lon":125.168447,"initial":"dt","name":"大屯","pinyin":"datun","lat":43.784405},{"poiid":"B0FFGQ3767","index":"d","lon":112.812998,"initial":"dw","name":"大旺","pinyin":"dawang","lat":23.253475},{"poiid":"B036E14W35","index":"d","lon":101.820173,"initial":"dwz","name":"大湾子","pinyin":"dawanzi","lat":25.998955},{"poiid":"B0FFFP6SFE","index":"d","lon":106.392159,"initial":"dwk","name":"大武口","pinyin":"dawukou","lat":39.027541},{"poiid":"B01C90LW5O","index":"d","lon":124.538733,"initial":"dws","name":"大乌苏","pinyin":"dawusu","lat":51.790935},{"poiid":"B01D00M09Z","index":"d","lon":130.582671,"initial":"dx","name":"大西","pinyin":"daxi","lat":45.844571},{"poiid":"B01C4015RF","index":"d","lon":123.750233,"initial":"dx","name":"大兴","pinyin":"daxing","lat":46.875659},{"poiid":"","index":"d","lon":124.538733,"initial":"dxal","name":"大兴安岭","pinyin":"daxinganling","lat":51.790935},{"poiid":"B05990MSV4","index":"d","lon":129.663818,"initial":"dxg","name":"大兴沟","pinyin":"daxinggou","lat":43.412153},{"poiid":"B01630MOT0","index":"d","lon":113.101558,"initial":"dxz","name":"大辛庄","pinyin":"daxinzhuang","lat":36.244113},{"poiid":"B01AD14SLC","index":"d","lon":120.319321,"initial":"dxt","name":"大徐屯","pinyin":"daxutun","lat":40.725577},{"poiid":"B01D60NBQH","index":"d","lon":120.55166,"initial":"dy","name":"大雁","pinyin":"dayan","lat":49.231508},{"poiid":"B01D60NRZ7","index":"d","lon":124.199281,"initial":"dyq","name":"大扬气","pinyin":"dayangqi","lat":51.005537},{"poiid":"B01D601KLZ","index":"d","lon":124.609605,"initial":"dys","name":"大杨树","pinyin":"dayangshu","lat":49.749414},{"poiid":"B01D60NS0D","index":"d","lon":124.661785,"initial":"dysd","name":"大杨树东","pinyin":"dayangshudong","lat":49.711596},{"poiid":"B0FFFH8Q5W","index":"d","lon":115.001338,"initial":"dyb","name":"大冶北","pinyin":"dayebei","lat":30.122082},{"poiid":"B015E0NCLH","index":"d","lon":113.75419,"initial":"dy","name":"大营","pinyin":"daying","lat":39.277598},{"poiid":"B0339014PK","index":"d","lon":105.279069,"initial":"dyd","name":"大英东","pinyin":"dayingdong","lat":30.570964},{"poiid":"B013E00FO7","index":"d","lon":115.73543,"initial":"dyz","name":"大营镇","pinyin":"dayingzhen","lat":37.314211},{"poiid":"B0FFFFYMKP","index":"d","lon":114.4238,"initial":"dy","name":"大余","pinyin":"dayu","lat":25.439385},{"poiid":"B0FFFGPG9N","index":"d","lon":105.534064,"initial":"dzc","name":"大战场","pinyin":"dazhanchang","lat":37.43142},{"poiid":"B013A0QGYS","index":"d","lon":118.550753,"initial":"dzz","name":"大杖子","pinyin":"dazhangzi","lat":40.85251},{"poiid":"B03320086I","index":"d","lon":107.452544,"initial":"dz","name":"达州","pinyin":"dazhou","lat":31.19713},{"poiid":"B03930OY04","index":"d","lon":108.72223,"initial":"dzy","name":"大竹园","pinyin":"dazhuyuan","lat":32.556069},{"poiid":"B001792YOQ","index":"d","lon":105.74853,"initial":"dzn","name":"大足南","pinyin":"dazunan","lat":29.419786},{"poiid":"B031801266","index":"d","lon":115.767042,"initial":"da","name":"德安","pinyin":"dean","lat":29.309735},{"poiid":"B03080MOY1","index":"d","lon":106.627951,"initial":"db","name":"德保","pinyin":"debao","lat":23.345379},{"poiid":"B01E201366","index":"d","lon":121.363977,"initial":"dbs","name":"德伯斯","pinyin":"debosi","lat":46.492808},{"poiid":"B0342030CO","index":"d","lon":102.187002,"initial":"dc","name":"德昌","pinyin":"dechang","lat":27.395191},{"poiid":"B01D601K04","index":"d","lon":121.079181,"initial":"debe","name":"得耳布尔","pinyin":"deerbuer","lat":50.993371},{"poiid":"B01AF0APMN","index":"d","lon":125.709914,"initial":"dh","name":"德惠","pinyin":"dehui","lat":44.522684},{"poiid":"B01AF0ZYK4","index":"d","lon":125.676793,"initial":"dhx","name":"德惠西","pinyin":"dehuixi","lat":44.547691},{"poiid":"B03D100FR6","index":"d","lon":97.380884,"initial":"dlh","name":"德令哈","pinyin":"delingha","lat":37.315136},{"poiid":"B019B08PMS","index":"d","lon":122.068696,"initial":"dsh","name":"登沙河","pinyin":"dengshahe","lat":39.223125},{"poiid":"B01A300583","index":"d","lon":123.317279,"initial":"dt","name":"灯塔","pinyin":"dengta","lat":41.430521},{"poiid":"B017900EIL","index":"d","lon":112.071954,"initial":"dz","name":"邓州","pinyin":"dengzhou","lat":32.685809},{"poiid":"B023C0QSPM","index":"d","lon":120.061375,"initial":"dq","name":"德清","pinyin":"deqing","lat":30.545038},{"poiid":"B023C02VY9","index":"d","lon":119.957742,"initial":"dqx","name":"德清西","pinyin":"deqingxi","lat":30.534157},{"poiid":"B01DF1592G","index":"d","lon":112.944898,"initial":"drst","name":"德日斯图","pinyin":"derisitu","lat":42.339452},{"poiid":"B0FFFE2W2F","index":"d","lon":117.862283,"initial":"dx","name":"德兴","pinyin":"dexing","lat":28.959942},{"poiid":"B0FFF0056B","index":"d","lon":104.389369,"initial":"dy","name":"德阳","pinyin":"deyang","lat":31.165819},{"poiid":"B021601H33","index":"d","lon":116.28789,"initial":"dz","name":"德州","pinyin":"dezhou","lat":37.446365},{"poiid":"B02160P4J8","index":"d","lon":116.463155,"initial":"dzd","name":"德州东","pinyin":"dezhoudong","lat":37.405006},{"poiid":"B0FFFZXOUV","index":"d","lon":107.379494,"initial":"dj","name":"垫江","pinyin":"dianjiang","lat":30.307195},{"poiid":"B036E14HLM","index":"d","lon":101.713422,"initial":"dx","name":"甸心","pinyin":"dianxin","lat":25.311684},{"poiid":"B01D3008IF","index":"d","lon":130.823776,"initial":"dd","name":"滴道","pinyin":"didao","lat":45.345733},{"poiid":"B03900NAW8","index":"d","lon":107.577424,"initial":"db","name":"定边","pinyin":"dingbian","lat":37.561285},{"poiid":"B0FFGKOX83","index":"d","lon":112.662139,"initial":"dhd","name":"鼎湖东","pinyin":"dinghudong","lat":23.21582},{"poiid":"B0FFGPV757","index":"d","lon":112.587286,"initial":"dhs","name":"鼎湖山","pinyin":"dinghushan","lat":23.174073},{"poiid":"B0FFFGNTNW","index":"d","lon":115.004846,"initial":"dn","name":"定南","pinyin":"dingnan","lat":24.773795},{"poiid":"B02120S5EF","index":"d","lon":115.595994,"initial":"dt","name":"定陶","pinyin":"dingtao","lat":35.063656},{"poiid":"B03A40018O","index":"d","lon":104.625821,"initial":"dx","name":"定西","pinyin":"dingxi","lat":35.592112},{"poiid":"B015E015Z2","index":"d","lon":112.959323,"initial":"dx","name":"定襄","pinyin":"dingxiang","lat":38.478353},{"poiid":"B02260QMY0","index":"d","lon":117.844146,"initial":"dy","name":"定远","pinyin":"dingyuan","lat":32.572904},{"poiid":"B013800X0L","index":"d","lon":114.972962,"initial":"dz","name":"定州","pinyin":"dingzhou","lat":38.530333},{"poiid":"B01380Q00Z","index":"d","lon":115.080065,"initial":"dzd","name":"定州东","pinyin":"dingzhoudong","lat":38.511209},{"poiid":"B03A91447X","index":"d","lon":97.242035,"initial":"dwp","name":"低窝铺","pinyin":"diwopu","lat":40.142484},{"poiid":"B02E90QJM3","index":"d","lon":110.718006,"initial":"dz","name":"低庄","pinyin":"dizhuang","lat":28.050088},{"poiid":"B02EA0NQMG","index":"d","lon":111.338625,"initial":"dad","name":"东安东","pinyin":"dongandong","lat":26.377487},{"poiid":"B01C700EIP","index":"d","lon":127.113286,"initial":"dbj","name":"东边井","pinyin":"dongbianjing","lat":47.411761},{"poiid":"B013A0QES1","index":"d","lon":117.818271,"initial":"ddb","name":"东大坝","pinyin":"dongdaba","lat":41.659143},{"poiid":"B0FFFA34JR","index":"d","lon":119.847872,"initial":"ddh","name":"东戴河","pinyin":"dongdaihe","lat":40.044916},{"poiid":"B01C60NC4X","index":"d","lon":134.122607,"initial":"dedh","name":"东二道河","pinyin":"dongerdaohe","lat":47.687483},{"poiid":"B03270LJA8","index":"d","lon":108.692015,"initial":"df","name":"东方","pinyin":"dongfang","lat":19.088051},{"poiid":"B01D30M16P","index":"d","lon":133.1025,"initial":"dfh","name":"东方红","pinyin":"dongfanghong","lat":46.200157},{"poiid":"B01B5005T3","index":"d","lon":125.545692,"initial":"df","name":"东丰","pinyin":"dongfeng","lat":42.654468},{"poiid":"B01B00QDTM","index":"d","lon":126.893774,"initial":"df","name":"东富","pinyin":"dongfu","lat":44.36626},{"poiid":"B0FFGE2BYK","index":"d","lon":124.130677,"initial":"dgb","name":"东港北","pinyin":"donggangbei","lat":39.910361},{"poiid":"B01A50TGY5","index":"d","lon":119.078475,"initial":"dgm","name":"东沟门","pinyin":"donggoumen","lat":40.923617},{"poiid":"B0FFFR0U6U","index":"d","lon":113.859871,"initial":"dg","name":"东莞","pinyin":"dongguan","lat":23.089405},{"poiid":"B0FFF5TS93","index":"d","lon":114.040097,"initial":"dgd","name":"东莞东","pinyin":"dongguandong","lat":22.967525},{"poiid":"B013D00O4R","index":"d","lon":116.530001,"initial":"dg","name":"东光","pinyin":"dongguang","lat":37.891351},{"poiid":"B0FFH6U88N","index":"d","lon":131.309821,"initial":"dh","name":"东海","pinyin":"donghai","lat":45.291262},{"poiid":"B0FFFGRX4E","index":"d","lon":118.774373,"initial":"dhx","name":"东海县","pinyin":"donghaixian","lat":34.518287},{"poiid":"B01C700SLF","index":"d","lon":127.215284,"initial":"dj","name":"东津","pinyin":"dongjin","lat":46.739499},{"poiid":"B01C50090C","index":"d","lon":129.225721,"initial":"djc","name":"东京城","pinyin":"dongjingcheng","lat":44.117505},{"poiid":"B01DB0MX1X","index":"d","lon":121.643189,"initial":"dl","name":"东来","pinyin":"donglai","lat":43.389676},{"poiid":"B013A0PZ5O","index":"d","lon":117.696357,"initial":"dmh","name":"洞庙河","pinyin":"dongmiaohe","lat":40.571538},{"poiid":"B0FFFH8Q5U","index":"d","lon":121.226965,"initial":"dmc","name":"东明村","pinyin":"dongmingcun","lat":43.272923},{"poiid":"B0212010FE","index":"d","lon":115.09586,"initial":"dmx","name":"东明县","pinyin":"dongmingxian","lat":35.267854},{"poiid":"B01DC16BV1","index":"d","lon":119.148927,"initial":"dnyz","name":"东南营子","pinyin":"dongnanyingzi","lat":42.309903},{"poiid":"B01640MU5J","index":"d","lon":112.921677,"initial":"dp","name":"东坡","pinyin":"dongpo","lat":35.385844},{"poiid":"B0FFFLF8R8","index":"d","lon":127.176593,"initial":"dq","name":"氡泉","pinyin":"dongquan","lat":42.127728},{"poiid":"B02F80S3KU","index":"d","lon":113.279548,"initial":"ds","name":"东升","pinyin":"dongsheng","lat":22.60606},{"poiid":"B01DD15XAC","index":"d","lon":109.87771,"initial":"dsx","name":"东胜西","pinyin":"dongshengxi","lat":39.725471},{"poiid":"B0203020OO","index":"d","lon":120.347123,"initial":"dt","name":"东台","pinyin":"dongtai","lat":32.868872},{"poiid":"B01630N46B","index":"d","lon":112.930746,"initial":"dtl","name":"东田良","pinyin":"dongtianliang","lat":35.997941},{"poiid":"B01B30MMG9","index":"d","lon":126.043085,"initial":"dth","name":"东通化","pinyin":"dongtonghua","lat":41.770204},{"poiid":"B03AF0MN0I","index":"d","lon":104.746067,"initial":"dw","name":"东湾","pinyin":"dongwan","lat":36.650026},{"poiid":"B031A00YFG","index":"d","lon":116.626577,"initial":"dx","name":"东乡","pinyin":"dongxiang","lat":28.226147},{"poiid":"B01D8024BG","index":"d","lon":110.198828,"initial":"dx","name":"东兴","pinyin":"dongxing","lat":40.557005},{"poiid":"B01AD0HXDM","index":"d","lon":120.450114,"initial":"dxz","name":"东辛庄","pinyin":"dongxinzhuang","lat":40.357851},{"poiid":"B022201ZEZ","index":"d","lon":118.471044,"initial":"dy","name":"东营","pinyin":"dongying","lat":37.455086},{"poiid":"B0FFG441F6","index":"d","lon":118.547866,"initial":"dyn","name":"东营南","pinyin":"dongyingnan","lat":37.356335},{"poiid":"B01A50TGUL","index":"d","lon":119.097944,"initial":"dyz","name":"东营子","pinyin":"dongyingzi","lat":40.870206},{"poiid":"B01640ML48","index":"d","lon":112.938613,"initial":"dyq","name":"东元庆","pinyin":"dongyuanqing","lat":35.570133},{"poiid":"B015E0NCLI","index":"d","lon":113.908488,"initial":"dyd","name":"东淤地","pinyin":"dongyudi","lat":39.263229},{"poiid":"B01670MA43","index":"d","lon":111.314088,"initial":"dz","name":"东镇","pinyin":"dongzhen","lat":35.428692},{"poiid":"B02360MJP4","index":"d","lon":117.027909,"initial":"dz","name":"东至","pinyin":"dongzhi","lat":30.170007},{"poiid":"B015E0NCLJ","index":"d","lon":113.824828,"initial":"dz","name":"东庄","pinyin":"dongzhuang","lat":39.26866},{"poiid":"B01C50OGWO","index":"d","lon":129.263296,"initial":"dgz","name":"斗沟子","pinyin":"dougouzi","lat":43.940368},{"poiid":"B015E0NABX","index":"d","lon":112.701595,"initial":"dl","name":"豆罗","pinyin":"douluo","lat":38.302887},{"poiid":"B00160DZBL","index":"d","lon":116.942005,"initial":"dzz","name":"豆张庄","pinyin":"douzhangzhuang","lat":39.400185},{"poiid":"B01360ODFQ","index":"d","lon":113.847147,"initial":"dz","name":"豆庄","pinyin":"douzhuang","lat":36.729783},{"poiid":"B0FFGPXJVC","index":"d","lon":112.514888,"initial":"dz","name":"端州","pinyin":"duanzhou","lat":23.111015},{"poiid":"B0FFFJU1DL","index":"d","lon":104.697776,"initial":"dg","name":"都格","pinyin":"duge","lat":26.358362},{"poiid":"B01C31CSL6","index":"d","lon":126.345109,"initial":"dqs","name":"对青山","pinyin":"duiqingshan","lat":45.931075},{"poiid":"B01660N7F8","index":"d","lon":111.610568,"initial":"dz","name":"兑镇","pinyin":"duizhen","lat":37.090015},{"poiid":"B001C80JDQ","index":"d","lon":103.638332,"initial":"djy","name":"都江堰","pinyin":"dujiangyan","lat":30.957059},{"poiid":"B0FFGK99IA","index":"d","lon":128.246454,"initial":"dh","name":"敦化","pinyin":"dunhua","lat":43.375783},{"poiid":"B03A913IG7","index":"d","lon":94.783415,"initial":"dh","name":"敦煌","pinyin":"dunhuang","lat":40.168811},{"poiid":"B03560NH3W","index":"d","lon":107.547271,"initial":"ds","name":"独山","pinyin":"dushan","lat":25.86391},{"poiid":"B033201DUP","index":"d","lon":107.283833,"initial":"ds","name":"渡市","pinyin":"dushi","lat":31.024999},{"poiid":"B03560NGUZ","index":"d","lon":107.515012,"initial":"dy","name":"都匀","pinyin":"duyun","lat":26.232695},{"poiid":"B0FFFFY2I1","index":"d","lon":107.583552,"initial":"dyd","name":"都匀东","pinyin":"duyundong","lat":26.165965}]},{"index":"e","list":[{"poiid":"B0FFFENW3O","index":"e","lon":103.277136,"initial":"eb","name":"峨边","pinyin":"ebian","lat":29.258356},{"poiid":"B0FFGCU8ZH","index":"e","lon":109.844004,"initial":"eeds","name":"鄂尔多斯","pinyin":"eerduosi","lat":39.561262},{"poiid":"B0FFFAJFLG","index":"e","lon":101.031391,"initial":"ejn","name":"额济纳","pinyin":"ejina","lat":41.899954},{"poiid":"B0FFFH1871","index":"e","lon":103.521607,"initial":"em","name":"峨眉","pinyin":"emei","lat":29.583857},{"poiid":"B0FFFFY34W","index":"e","lon":103.468622,"initial":"ems","name":"峨眉山","pinyin":"emeishan","lat":29.577125},{"poiid":"B02CE032PM","index":"e","lon":109.486869,"initial":"es","name":"恩施","pinyin":"enshi","lat":30.350791},{"poiid":"","index":"e","lon":109.486869,"initial":"estjzmzzzz","name":"恩施土家族苗族自治州","pinyin":"enshitujiazumiaozuzizhizhou","lat":30.350791},{"poiid":"B0FFFH8Q5Y","index":"e","lon":113.876737,"initial":"edg","name":"二道沟","pinyin":"erdaogou","lat":41.863041},{"poiid":"B013A0QGYX","index":"e","lon":117.149711,"initial":"edgm","name":"二道沟门","pinyin":"erdaogoumen","lat":40.886241},{"poiid":"B01C40OZBA","index":"e","lon":124.544541,"initial":"edw","name":"二道湾","pinyin":"erdaowan","lat":47.955979},{"poiid":"B01C80MKWQ","index":"e","lon":126.522915,"initial":"ej","name":"二井","pinyin":"erjing","lat":48.355748},{"poiid":"B01DF004DA","index":"e","lon":111.993623,"initial":"el","name":"二连","pinyin":"erlian","lat":43.652688},{"poiid":"B0FFFEXNJ2","index":"e","lon":119.276661,"initial":"el","name":"二龙","pinyin":"erlong","lat":41.696951},{"poiid":"B01C800376","index":"e","lon":126.640652,"initial":"elst","name":"二龙山屯","pinyin":"erlongshantun","lat":48.492303},{"poiid":"B0FFFH8Q5X","index":"e","lon":102.640961,"initial":"esh","name":"尔赛河","pinyin":"ersaihe","lat":28.397866},{"poiid":"B03BA0MY2Q","index":"e","lon":106.248587,"initial":"ey","name":"二营","pinyin":"erying","lat":36.183762},{"poiid":"B02C7003BZ","index":"e","lon":114.86548,"initial":"ez","name":"鄂州","pinyin":"ezhou","lat":30.362258},{"poiid":"B0FFFJQIZE","index":"e","lon":114.949976,"initial":"ezd","name":"鄂州东","pinyin":"ezhoudong","lat":30.360943}]},{"index":"f","list":[{"poiid":"B035A0NA1S","index":"f","lon":104.80991,"initial":"fe","name":"发耳","pinyin":"faer","lat":26.312586},{"poiid":"B0FFFYT493","index":"f","lon":118.160594,"initial":"fcx","name":"繁昌西","pinyin":"fanchangxi","lat":31.073067},{"poiid":"B03020MDEW","index":"f","lon":108.379026,"initial":"fcgb","name":"防城港北","pinyin":"fangchenggangbei","lat":21.714431},{"poiid":"B01B200ZPC","index":"f","lon":125.078019,"initial":"fjt","name":"范家屯","pinyin":"fanjiatun","lat":43.715851},{"poiid":"B015E00AM1","index":"f","lon":113.275853,"initial":"fs","name":"繁峙","pinyin":"fanshi","lat":39.163787},{"poiid":"B021A0OTWF","index":"f","lon":117.395547,"initial":"fz","name":"范镇","pinyin":"fanzhen","lat":36.217793},{"poiid":"B02270IN2T","index":"f","lon":117.476288,"initial":"fd","name":"肥东","pinyin":"feidong","lat":31.857754},{"poiid":"B021B032E0","index":"f","lon":117.988038,"initial":"fx","name":"费县","pinyin":"feixian","lat":35.277595},{"poiid":"B031B00633","index":"f","lon":115.790808,"initial":"fc","name":"丰城","pinyin":"fengcheng","lat":28.182539},{"poiid":"B0FFFY1B8J","index":"f","lon":124.133197,"initial":"fcd","name":"凤城东","pinyin":"fengchengdong","lat":40.466292},{"poiid":"B00179B2Z2","index":"f","lon":107.691783,"initial":"fd","name":"丰都","pinyin":"fengdu","lat":29.845877},{"poiid":"B0FFFH8Q60","index":"f","lon":126.714948,"initial":"fg","name":"丰广","pinyin":"fengguang","lat":44.252126},{"poiid":"B023E0645E","index":"f","lon":121.463798,"initial":"fh","name":"奉化","pinyin":"fenghua","lat":29.627156},{"poiid":"B019F00U3X","index":"f","lon":124.057415,"initial":"fhc","name":"凤凰城","pinyin":"fenghuangcheng","lat":40.450014},{"poiid":"B0FFGZJB9T","index":"f","lon":109.409365,"initial":"fhjc","name":"凤凰机场","pinyin":"fenghuangjichang","lat":18.309085},{"poiid":"B03950QJUA","index":"f","lon":107.189843,"initial":"fjs","name":"冯家山","pinyin":"fengjiashan","lat":34.524709},{"poiid":"B01D50M1UP","index":"f","lon":130.882588,"initial":"flz","name":"丰乐镇","pinyin":"fenglezhen","lat":46.810147},{"poiid":"B016700K2H","index":"f","lon":110.31153,"initial":"fld","name":"风陵渡","pinyin":"fenglingdu","lat":34.630295},{"poiid":"B03A30ZKR0","index":"f","lon":103.986112,"initial":"fsc","name":"丰水村","pinyin":"fengshuicun","lat":36.459372},{"poiid":"B0FFFVTDER","index":"f","lon":119.411607,"initial":"fsg","name":"风水沟","pinyin":"fengshuigou","lat":42.346541},{"poiid":"B02F10173B","index":"f","lon":116.192549,"initial":"fs","name":"丰顺","pinyin":"fengshun","lat":23.748598},{"poiid":"B01C40OZBB","index":"f","lon":124.131251,"initial":"ft","name":"冯屯","pinyin":"fengtun","lat":47.467894},{"poiid":"B039501TCN","index":"f","lon":106.506858,"initial":"fx","name":"凤县","pinyin":"fengxian","lat":33.904891},{"poiid":"B0FFGK9UY8","index":"f","lon":107.246,"initial":"fx","name":"凤翔","pinyin":"fengxiang","lat":34.465933},{"poiid":"B01DA0085F","index":"f","lon":113.157868,"initial":"fz","name":"丰镇","pinyin":"fengzhen","lat":40.437997},{"poiid":"B03950Q4AY","index":"f","lon":106.659408,"initial":"fz","name":"凤州","pinyin":"fengzhou","lat":33.973772},{"poiid":"B015F02X39","index":"f","lon":112.540494,"initial":"fh","name":"汾河","pinyin":"fenhe","lat":37.947907},{"poiid":"B01660NGPU","index":"f","lon":111.916,"initial":"fy","name":"汾阳","pinyin":"fenyang","lat":37.372653},{"poiid":"B03160LYF6","index":"f","lon":114.659677,"initial":"fy","name":"分宜","pinyin":"fenyi","lat":27.805164},{"poiid":"B01D000AEC","index":"f","lon":130.576382,"initial":"fl","name":"佛岭","pinyin":"foling","lat":45.626497},{"poiid":"B02F508Q0P","index":"f","lon":113.103737,"initial":"fs","name":"佛山","pinyin":"foshan","lat":23.046872},{"poiid":"B0FFFKJMTL","index":"f","lon":119.717245,"initial":"fa","name":"福安","pinyin":"fuan","lat":26.838737},{"poiid":"B06EE0MHCK","index":"f","lon":111.360634,"initial":"fc","name":"富川","pinyin":"fuchuan","lat":24.811033},{"poiid":"B02510351B","index":"f","lon":120.188424,"initial":"fd","name":"福鼎","pinyin":"fuding","lat":27.282328},{"poiid":"B0FFFGNW53","index":"f","lon":124.849217,"initial":"fh","name":"富海","pinyin":"fuhai","lat":47.865375},{"poiid":"B038A0LRK8","index":"f","lon":87.462144,"initial":"fh","name":"福海","pinyin":"fuhai","lat":47.122611},{"poiid":"B01C600KZK","index":"f","lon":132.046693,"initial":"fj","name":"富锦","pinyin":"fujin","lat":47.237118},{"poiid":"B01DB0NB9M","index":"f","lon":121.880814,"initial":"fj","name":"福巨","pinyin":"fuju","lat":43.636308},{"poiid":"B0FFFVRNUQ","index":"f","lon":123.64768,"initial":"flej","name":"富拉尔基","pinyin":"fulaerji","lat":47.210737},{"poiid":"B001782MFR","index":"f","lon":107.334017,"initial":"fl","name":"涪陵","pinyin":"fuling","lat":29.698106},{"poiid":"B00179BNKQ","index":"f","lon":107.282702,"initial":"flb","name":"涪陵北","pinyin":"fulingbei","lat":29.769805},{"poiid":"B01D5002QA","index":"f","lon":131.133187,"initial":"flt","name":"福利屯","pinyin":"fulitun","lat":46.722118},{"poiid":"B014F0SPMJ","index":"f","lon":119.253988,"initial":"fn","name":"抚宁","pinyin":"funing","lat":39.892859},{"poiid":"B0FFG4MCUZ","index":"f","lon":105.584638,"initial":"fn","name":"富宁","pinyin":"funing","lat":23.676914},{"poiid":"B02030IBJT","index":"f","lon":119.61476,"initial":"fn","name":"阜宁","pinyin":"funing","lat":33.595414},{"poiid":"B024F05MPB","index":"f","lon":119.384223,"initial":"fq","name":"福清","pinyin":"fuqing","lat":25.676213},{"poiid":"B03560NKMD","index":"f","lon":107.536396,"initial":"fq","name":"福泉","pinyin":"fuquan","lat":26.623727},{"poiid":"B01380ROJ1","index":"f","lon":115.340828,"initial":"fsk","name":"福山口","pinyin":"fushankou","lat":39.674341},{"poiid":"B0FFFYSRT4","index":"f","lon":109.918511,"initial":"fsz","name":"福山镇","pinyin":"fushanzhen","lat":19.876181},{"poiid":"B0FFFDW1DE","index":"f","lon":106.800426,"initial":"fs","name":"复盛","pinyin":"fusheng","lat":29.653886},{"poiid":"B01DA14VS7","index":"f","lon":112.463784,"initial":"fsz","name":"福生庄","pinyin":"fushengzhuang","lat":40.966796},{"poiid":"B0FFFGNW0O","index":"f","lon":123.903241,"initial":"fs","name":"抚顺","pinyin":"fushun","lat":41.864178},{"poiid":"B019D029OE","index":"f","lon":123.918047,"initial":"fsb","name":"抚顺北","pinyin":"fushunbei","lat":41.888866},{"poiid":"B0FFH0KGVH","index":"f","lon":127.2665,"initial":"fs","name":"抚松","pinyin":"fusong","lat":42.298753},{"poiid":"B06EB00217","index":"f","lon":107.919347,"initial":"fs","name":"扶绥","pinyin":"fusui","lat":22.627587},{"poiid":"B0FFG3UVLH","index":"f","lon":114.057066,"initial":"ft","name":"福田","pinyin":"futian","lat":22.539112},{"poiid":"B01380ROJ5","index":"f","lon":114.83321,"initial":"fty","name":"浮图峪","pinyin":"futuyu","lat":39.366699},{"poiid":"B038F0NMBT","index":"f","lon":109.393906,"initial":"fxd","name":"富县东","pinyin":"fuxiandong","lat":36.022116},{"poiid":"","index":"f","lon":122.48309,"initial":"fx","name":"阜新","pinyin":"fuxin","lat":42.710367},{"poiid":"B01DC16G14","index":"f","lon":120.191933,"initial":"fxd","name":"福兴地","pinyin":"fuxingdi","lat":43.752336},{"poiid":"B01A204BC6","index":"f","lon":121.639134,"initial":"fxn","name":"阜新南","pinyin":"fuxinnan","lat":41.987508},{"poiid":"B061601784","index":"f","lon":115.868937,"initial":"fy","name":"阜阳","pinyin":"fuyang","lat":32.914599},{"poiid":"B01B600D1F","index":"f","lon":126.022801,"initial":"fy","name":"扶余","pinyin":"fuyu","lat":44.984521},{"poiid":"B01C401GLF","index":"f","lon":124.460488,"initial":"fy","name":"富裕","pinyin":"fuyu","lat":47.796931},{"poiid":"B01C60N13T","index":"f","lon":134.401087,"initial":"fy","name":"抚远","pinyin":"fuyuan","lat":48.347175},{"poiid":"B036A0IY01","index":"f","lon":104.270727,"initial":"fy","name":"富源","pinyin":"fuyuan","lat":25.680831},{"poiid":"B0FFFOC2RG","index":"f","lon":104.270285,"initial":"fyb","name":"富源北","pinyin":"fuyuanbei","lat":25.711975},{"poiid":"B01B60MIOX","index":"f","lon":126.006316,"initial":"fyb","name":"扶余北","pinyin":"fuyubei","lat":45.011993},{"poiid":"B024F0318I","index":"f","lon":119.321835,"initial":"fz","name":"福州","pinyin":"fuzhou","lat":26.112839},{"poiid":"B031A0NYTG","index":"f","lon":116.351988,"initial":"fz","name":"抚州","pinyin":"fuzhou","lat":27.918696},{"poiid":"B0FFFQ5N1R","index":"f","lon":116.61802,"initial":"fzd","name":"抚州东","pinyin":"fuzhoudong","lat":28.260822},{"poiid":"B024F05SHJ","index":"f","lon":119.391341,"initial":"fzn","name":"福州南","pinyin":"fuzhounan","lat":25.983944}]},{"index":"g","list":[{"poiid":"B01A10HUS0","index":"g","lon":122.333438,"initial":"gz","name":"盖州","pinyin":"gaizhou","lat":40.420058},{"poiid":"B01A114995","index":"g","lon":122.275806,"initial":"gzx","name":"盖州西","pinyin":"gaizhouxi","lat":40.406213},{"poiid":"B01DC16G15","index":"g","lon":117.749159,"initial":"gldst","name":"嘎拉德斯汰","pinyin":"galadesitai","lat":43.471191},{"poiid":"B03A30ZEXK","index":"g","lon":104.286665,"initial":"gcd","name":"甘草店","pinyin":"gancaodian","lat":35.797115},{"poiid":"B03AA0026H","index":"g","lon":105.328202,"initial":"gg","name":"甘谷","pinyin":"gangu","lat":34.762341},{"poiid":"B01D60N8Z7","index":"g","lon":123.05961,"initial":"gh","name":"甘河","pinyin":"ganhe","lat":50.630197},{"poiid":"B034200GT4","index":"g","lon":102.762558,"initial":"gl","name":"甘洛","pinyin":"ganluo","lat":28.979137},{"poiid":"B01DB0031E","index":"g","lon":122.358195,"initial":"gqk","name":"甘旗卡","pinyin":"ganqika","lat":42.959272},{"poiid":"B038F0NTIF","index":"g","lon":109.346966,"initial":"gqb","name":"甘泉北","pinyin":"ganquanbei","lat":36.278382},{"poiid":"B001798D5H","index":"g","lon":106.715228,"initial":"gs","name":"赶水","pinyin":"ganshui","lat":28.749076},{"poiid":"B0FFGYWSWF","index":"g","lon":104.524399,"initial":"gt","name":"干塘","pinyin":"gantang","lat":37.455053},{"poiid":"B031D00FTG","index":"g","lon":114.964693,"initial":"gz","name":"赣州","pinyin":"ganzhou","lat":25.819623},{"poiid":"B0FFFAGOGK","index":"g","lon":115.385568,"initial":"ga","name":"高安","pinyin":"gaoan","lat":28.471818},{"poiid":"B013800X0Q","index":"g","lon":115.857728,"initial":"gbd","name":"高碑店","pinyin":"gaobeidian","lat":39.328574},{"poiid":"B01380PVSC","index":"g","lon":115.942655,"initial":"gbdd","name":"高碑店东","pinyin":"gaobeidiandong","lat":39.283023},{"poiid":"B013706LCU","index":"g","lon":114.836895,"initial":"gc","name":"藁城","pinyin":"gaocheng","lat":38.027513},{"poiid":"B015F17MHC","index":"g","lon":112.695387,"initial":"gc","name":"高村","pinyin":"gaocun","lat":38.167211},{"poiid":"B035513VCG","index":"g","lon":106.344813,"initial":"gf","name":"高峰","pinyin":"gaofeng","lat":26.387057},{"poiid":"B0FFF05HDO","index":"g","lon":116.629814,"initial":"ggz","name":"高各庄","pinyin":"gaogezhuang","lat":40.25764},{"poiid":"B01CB0O39A","index":"g","lon":124.553175,"initial":"gj","name":"高家","pinyin":"gaojia","lat":46.820269},{"poiid":"B01DE0MZ0A","index":"g","lon":109.797429,"initial":"gjc","name":"高家村","pinyin":"gaojiacun","lat":40.980734},{"poiid":"B03A30XFJH","index":"g","lon":103.942715,"initial":"gl","name":"皋兰","pinyin":"gaolan","lat":36.33726},{"poiid":"B01DB00JF6","index":"g","lon":122.552527,"initial":"glt","name":"高林屯","pinyin":"gaolintun","lat":43.871192},{"poiid":"B02180I2CX","index":"g","lon":119.76779,"initial":"gm","name":"高密","pinyin":"gaomi","lat":36.392991},{"poiid":"B0164004JL","index":"g","lon":112.918073,"initial":"gp","name":"高平","pinyin":"gaoping","lat":35.801523},{"poiid":"B01AD14P8L","index":"g","lon":121.005369,"initial":"gqz","name":"高桥镇","pinyin":"gaoqiaozhen","lat":40.897552},{"poiid":"B0FFG2UAJG","index":"g","lon":122.063616,"initial":"gsz","name":"高山子","pinyin":"gaoshanzi","lat":41.559257},{"poiid":"B03A813U81","index":"g","lon":99.784856,"initial":"gt","name":"高台","pinyin":"gaotai","lat":39.271753},{"poiid":"B0FFFQ0GS9","index":"g","lon":99.766036,"initial":"gtn","name":"高台南","pinyin":"gaotainan","lat":39.29527},{"poiid":"B01D60NFF2","index":"g","lon":122.801623,"initial":"gtz","name":"高台子","pinyin":"gaotaizi","lat":47.93636},{"poiid":"B0FFFFLX8Y","index":"g","lon":108.327472,"initial":"gt","name":"高滩","pinyin":"gaotan","lat":32.414522},{"poiid":"B01C40OSYH","index":"g","lon":124.077722,"initial":"gt","name":"高头","pinyin":"gaotou","lat":47.419075},{"poiid":"B013706RCF","index":"g","lon":114.596832,"initial":"gy","name":"高邑","pinyin":"gaoyi","lat":37.609804},{"poiid":"B01370UH6E","index":"g","lon":114.529851,"initial":"gyx","name":"高邑西","pinyin":"gaoyixi","lat":37.629208},{"poiid":"B0FFFPSLSP","index":"g","lon":110.889214,"initial":"gz","name":"高州","pinyin":"gaozhou","lat":21.896048},{"poiid":"B01DB0NB9D","index":"g","lon":121.358058,"initial":"gsdz","name":"嘎什甸子","pinyin":"gashidianzi","lat":43.311252},{"poiid":"B0FFFGNVZI","index":"g","lon":120.854417,"initial":"gst","name":"嘎什吐","pinyin":"gashitu","lat":43.090401},{"poiid":"B0FFF6SCLJ","index":"g","lon":114.659866,"initial":"gdn","name":"葛店南","pinyin":"gediannan","lat":30.490173},{"poiid":"B03D1005LN","index":"g","lon":94.901087,"initial":"gem","name":"格尔木","pinyin":"geermu","lat":36.383345},{"poiid":"B0FFGK0GHV","index":"g","lon":122.308161,"initial":"ggm","name":"葛根庙","pinyin":"gegenmiao","lat":45.893941},{"poiid":"B01D600GH5","index":"g","lon":121.512351,"initial":"gh","name":"根河","pinyin":"genhe","lat":50.777927},{"poiid":"B01AD14SPE","index":"g","lon":120.211058,"initial":"gzd","name":"鸽子洞","pinyin":"gezidong","lat":40.764437},{"poiid":"B0FFFGVZSC","index":"g","lon":110.869347,"initial":"gc","name":"恭城","pinyin":"gongcheng","lat":24.831405},{"poiid":"B01D80QIJ4","index":"g","lon":110.368542,"initial":"gjb","name":"公积坂","pinyin":"gongjiban","lat":40.558349},{"poiid":"B01DE0NJ47","index":"g","lon":108.963037,"initial":"gmz","name":"公庙子","pinyin":"gongmiaozi","lat":40.624313},{"poiid":"B01B60MGFQ","index":"g","lon":123.631185,"initial":"gnh","name":"工农湖","pinyin":"gongnonghu","lat":44.861454},{"poiid":"B0FFHN1FC0","index":"g","lon":125.740536,"initial":"gpz","name":"弓棚子","pinyin":"gongpengzi","lat":45.064586},{"poiid":"B031803I35","index":"g","lon":115.774173,"initial":"gqc","name":"共青城","pinyin":"gongqingcheng","lat":29.242298},{"poiid":"B017307D5C","index":"g","lon":112.98205,"initial":"gy","name":"巩义","pinyin":"gongyi","lat":34.7602},{"poiid":"B017316CMF","index":"g","lon":112.918534,"initial":"gyn","name":"巩义南","pinyin":"gongyinan","lat":34.670219},{"poiid":"B01A505C2P","index":"g","lon":119.851432,"initial":"gyz","name":"公营子","pinyin":"gongyingzi","lat":41.356963},{"poiid":"B01B200AOX","index":"g","lon":124.808916,"initial":"gzl","name":"公主岭","pinyin":"gongzhuling","lat":43.508427},{"poiid":"B01B20MY8P","index":"g","lon":124.814767,"initial":"gzln","name":"公主岭南","pinyin":"gongzhulingnan","lat":43.471999},{"poiid":"B01A00HSHU","index":"g","lon":121.774788,"initial":"gbz","name":"沟帮子","pinyin":"goubangzi","lat":41.36124},{"poiid":"B01D60NS0H","index":"g","lon":122.026445,"initial":"gk","name":"沟口","pinyin":"goukou","lat":48.680121},{"poiid":"B034101EET","index":"g","lon":103.025162,"initial":"gcb","name":"关村坝","pinyin":"guancunba","lat":29.288268},{"poiid":"B033A00EIB","index":"g","lon":106.896964,"initial":"ga","name":"广安","pinyin":"guangan","lat":30.493886},{"poiid":"B0FFFD3OPV","index":"g","lon":106.592063,"initial":"gan","name":"广安南","pinyin":"guangannan","lat":30.451183},{"poiid":"B000AAAJCW","index":"g","lon":116.31395,"initial":"gg","name":"官高","pinyin":"guangao","lat":40.226471},{"poiid":"B02330046R","index":"g","lon":119.412946,"initial":"gd","name":"广德","pinyin":"guangde","lat":30.913112},{"poiid":"B013A0QGXO","index":"g","lon":117.938604,"initial":"gdh","name":"广德号","pinyin":"guangdehao","lat":41.877882},{"poiid":"B0FFFFY304","index":"g","lon":104.273844,"initial":"ghb","name":"广汉北","pinyin":"guanghanbei","lat":31.007599},{"poiid":"B01C40OZB7","index":"g","lon":124.635328,"initial":"gm","name":"光明","pinyin":"guangming","lat":48.281185},{"poiid":"B02F38IYKJ","index":"g","lon":113.954355,"initial":"gmc","name":"光明城","pinyin":"guangmingcheng","lat":22.732087},{"poiid":"B036709FHM","index":"g","lon":102.894323,"initial":"gnw","name":"广南卫","pinyin":"guangnanwei","lat":24.919245},{"poiid":"B036C0OFFV","index":"g","lon":105.054873,"initial":"gnx","name":"广南县","pinyin":"guangnanxian","lat":24.03375},{"poiid":"B0FFFFY2RN","index":"g","lon":112.426252,"initial":"gn","name":"广宁","pinyin":"guangning","lat":23.585686},{"poiid":"B019B10S0E","index":"g","lon":121.847722,"initial":"gns","name":"广宁寺","pinyin":"guangningsi","lat":39.178974},{"poiid":"B0178005KC","index":"g","lon":114.949772,"initial":"gs","name":"光山","pinyin":"guangshan","lat":31.956982},{"poiid":"B02D20O4ET","index":"g","lon":114.036731,"initial":"gs","name":"广水","pinyin":"guangshui","lat":31.631915},{"poiid":"B0FFFGNTO2","index":"g","lon":101.766283,"initial":"gtb","name":"广通北","pinyin":"guangtongbei","lat":25.163953},{"poiid":"B034700704","index":"g","lon":105.818483,"initial":"gy","name":"广元","pinyin":"guangyuan","lat":32.448906},{"poiid":"B025703393","index":"g","lon":117.353341,"initial":"gz","name":"光泽","pinyin":"guangze","lat":27.548477},{"poiid":"B00140WEW0","index":"g","lon":113.25986,"initial":"gz","name":"广州","pinyin":"guangzhou","lat":23.148544},{"poiid":"B00140UERW","index":"g","lon":113.203761,"initial":"gzb","name":"广州北","pinyin":"guangzhoubei","lat":23.376824},{"poiid":"B00140TY64","index":"g","lon":113.325288,"initial":"gzd","name":"广州东","pinyin":"guangzhoudong","lat":23.151289},{"poiid":"B00140VAP3","index":"g","lon":113.269917,"initial":"gzn","name":"广州南","pinyin":"guangzhounan","lat":22.988947},{"poiid":"B00140UF98","index":"g","lon":113.244501,"initial":"gzx","name":"广州西","pinyin":"guangzhouxi","lat":23.138841},{"poiid":"B017B02Y37","index":"g","lon":112.511473,"initial":"gl","name":"关林","pinyin":"guanlin","lat":34.627203},{"poiid":"B0FFHDUJIT","index":"g","lon":105.527834,"initial":"gl","name":"关岭","pinyin":"guanling","lat":25.963442},{"poiid":"B019F0P73J","index":"g","lon":124.562513,"initial":"gs","name":"灌水","pinyin":"guanshui","lat":40.859752},{"poiid":"B01390POO8","index":"g","lon":115.588962,"initial":"gt","name":"官厅","pinyin":"guanting","lat":40.252185},{"poiid":"B0FFGDV4DS","index":"g","lon":115.584565,"initial":"gtx","name":"官厅西","pinyin":"guantingxi","lat":40.253766},{"poiid":"B035A0NJDK","index":"g","lon":105.223575,"initial":"gz","name":"关寨","pinyin":"guanzhai","lat":26.28403},{"poiid":"B025502BD1","index":"g","lon":116.678605,"initial":"gzs","name":"冠豸山","pinyin":"guanzhaishan","lat":25.524713},{"poiid":"B01B60N2B9","index":"g","lon":123.801408,"initial":"gzj","name":"官字井","pinyin":"guanzijing","lat":45.001966},{"poiid":"B03A9003FK","index":"g","lon":95.773449,"initial":"gz","name":"瓜州","pinyin":"guazhou","lat":40.567801},{"poiid":"B02C600C7A","index":"g","lon":111.599657,"initial":"gc","name":"谷城","pinyin":"gucheng","lat":32.265364},{"poiid":"B01C40OZLE","index":"g","lon":125.680474,"initial":"gc","name":"古城","pinyin":"gucheng","lat":47.961201},{"poiid":"B01C50267I","index":"g","lon":130.294791,"initial":"gcz","name":"古城镇","pinyin":"guchengzhen","lat":45.356611},{"poiid":"B0FFFQ0KQF","index":"g","lon":112.234204,"initial":"gd","name":"古东","pinyin":"gudong","lat":37.922776},{"poiid":"B0356003CM","index":"g","lon":107.227927,"initial":"gd","name":"贵定","pinyin":"guiding","lat":26.581293},{"poiid":"B0FFG34GIX","index":"g","lon":107.233809,"initial":"gdb","name":"贵定北","pinyin":"guidingbei","lat":26.592494},{"poiid":"B035601M26","index":"g","lon":107.190911,"initial":"gdn","name":"贵定南","pinyin":"guidingnan","lat":26.345113},{"poiid":"B0FFFH18SX","index":"g","lon":107.190921,"initial":"gdx","name":"贵定县","pinyin":"guidingxian","lat":26.351246},{"poiid":"B0FFG2ZXUF","index":"g","lon":109.611332,"initial":"gg","name":"贵港","pinyin":"guigang","lat":23.099236},{"poiid":"B030506KOK","index":"g","lon":110.281955,"initial":"gl","name":"桂林","pinyin":"guilin","lat":25.260725},{"poiid":"B030501C8B","index":"g","lon":110.301232,"initial":"glb","name":"桂林北","pinyin":"guilinbei","lat":25.330507},{"poiid":"B0FFGBGWOQ","index":"g","lon":110.266546,"initial":"glx","name":"桂林西","pinyin":"guilinxi","lat":25.355257},{"poiid":"B0FFGY24T3","index":"g","lon":121.733299,"initial":"glh","name":"归流河","pinyin":"guiliuhe","lat":46.199882},{"poiid":"B0FFF6T32J","index":"g","lon":110.116669,"initial":"gp","name":"桂平","pinyin":"guiping","lat":23.315862},{"poiid":"B02BD001AN","index":"g","lon":117.219241,"initial":"gx","name":"贵溪","pinyin":"guixi","lat":28.291467},{"poiid":"B035301F2G","index":"g","lon":106.702881,"initial":"gy","name":"贵阳","pinyin":"guiyang","lat":26.556361},{"poiid":"B0FFFR0KU5","index":"g","lon":106.676099,"initial":"gyb","name":"贵阳北","pinyin":"guiyangbei","lat":26.620389},{"poiid":"B01DA14VSH","index":"g","lon":112.614448,"initial":"gjb","name":"姑家堡","pinyin":"gujiabao","lat":40.919638},{"poiid":"B015F0IW4F","index":"g","lon":112.165117,"initial":"gj","name":"古交","pinyin":"gujiao","lat":37.918141},{"poiid":"B078F13OFO","index":"g","lon":102.917109,"initial":"gl","name":"古浪","pinyin":"gulang","lat":37.478797},{"poiid":"B0FFFGNWEY","index":"g","lon":122.352701,"initial":"gl","name":"古莲","pinyin":"gulian","lat":52.946885},{"poiid":"B01DF1592H","index":"g","lon":112.467569,"initial":"gebab","name":"郭尔奔敖包","pinyin":"guoerbenaobao","lat":43.072399},{"poiid":"B01B200YQN","index":"g","lon":124.579872,"initial":"gjd","name":"郭家店","pinyin":"guojiadian","lat":43.342797},{"poiid":"B01AD14P8H","index":"g","lon":120.533125,"initial":"gjt","name":"郭家屯","pinyin":"guojiatun","lat":40.738042},{"poiid":"B01B30MP3W","index":"g","lon":126.256311,"initial":"gs","name":"果松","pinyin":"guosong","lat":41.599401},{"poiid":"B022E0164D","index":"g","lon":116.240923,"initial":"gy","name":"涡阳","pinyin":"guoyang","lat":33.488459},{"poiid":"B0FFGQGAIV","index":"g","lon":107.358663,"initial":"gz","name":"虢镇","pinyin":"guozhen","lat":34.364277},{"poiid":"B01600MZCJ","index":"g","lon":113.331308,"initial":"gs","name":"孤山","pinyin":"gushan","lat":40.223495},{"poiid":"B000A7BIHQ","index":"g","lon":115.843692,"initial":"gsk","name":"孤山口","pinyin":"gushankou","lat":39.650094},{"poiid":"B0FFGTKN7T","index":"g","lon":119.864028,"initial":"gsz","name":"孤山子","pinyin":"gushanzi","lat":42.62389},{"poiid":"B0178006FD","index":"g","lon":115.670724,"initial":"gs","name":"固始","pinyin":"gushi","lat":31.914507},{"poiid":"B0251023YL","index":"g","lon":118.625222,"initial":"gt","name":"古田","pinyin":"gutian","lat":26.427075},{"poiid":"B0FFFH8UQV","index":"g","lon":118.668847,"initial":"gtb","name":"古田北","pinyin":"gutianbei","lat":26.461646},{"poiid":"B0FFGFCDIN","index":"g","lon":116.77161,"initial":"gthz","name":"古田会址","pinyin":"gutianhuizhi","lat":25.183466},{"poiid":"B01B30MMGB","index":"g","lon":126.244305,"initial":"gy","name":"菇园","pinyin":"guyuan","lat":41.803865},{"poiid":"B03BA001J3","index":"g","lon":106.306077,"initial":"gy","name":"固原","pinyin":"guyuan","lat":36.02005},{"poiid":"B0FFF3UDLA","index":"g","lon":113.201408,"initial":"gz","name":"古镇","pinyin":"guzhen","lat":22.596465},{"poiid":"B0228004EA","index":"g","lon":117.304209,"initial":"gz","name":"固镇","pinyin":"guzhen","lat":33.31786}]},{"index":"h","list":[{"poiid":"B01D60NRZB","index":"h","lon":121.519003,"initial":"hd","name":"哈达","pinyin":"hada","lat":50.679963},{"poiid":"B0FFHF9V65","index":"h","lon":104.234865,"initial":"hdp","name":"哈达铺","pinyin":"hadapu","lat":34.220679},{"poiid":"B01D60NS0E","index":"h","lon":125.217123,"initial":"hdy","name":"哈达阳","pinyin":"hadayang","lat":49.301915},{"poiid":"B05990MSVM","index":"h","lon":128.631018,"initial":"hebl","name":"哈尔巴岭","pinyin":"haerbaling","lat":43.266033},{"poiid":"B01C300049","index":"h","lon":126.631982,"initial":"heb","name":"哈尔滨","pinyin":"haerbin","lat":45.762347},{"poiid":"B0FFG1JQ2K","index":"h","lon":126.536098,"initial":"hebb","name":"哈尔滨北","pinyin":"haerbinbei","lat":45.850181},{"poiid":"B01C30323E","index":"h","lon":126.711999,"initial":"hebd","name":"哈尔滨东","pinyin":"haerbindong","lat":45.788875},{"poiid":"B01C319CT5","index":"h","lon":126.580995,"initial":"hebx","name":"哈尔滨西","pinyin":"haerbinxi","lat":45.711451},{"poiid":"B020106853","index":"h","lon":120.504524,"initial":"hax","name":"海安县","pinyin":"haianxian","lat":32.550826},{"poiid":"B01C70MNE8","index":"h","lon":126.876405,"initial":"hb","name":"海北","pinyin":"haibei","lat":47.668107},{"poiid":"B019C00RCJ","index":"h","lon":122.745095,"initial":"hc","name":"海城","pinyin":"haicheng","lat":40.865136},{"poiid":"B019C0Q024","index":"h","lon":122.658265,"initial":"hcx","name":"海城西","pinyin":"haichengxi","lat":40.918307},{"poiid":"","index":"h","lon":102.855163,"initial":"hd","name":"海东","pinyin":"haidong","lat":36.304156},{"poiid":"B0FFFRH9ZH","index":"h","lon":102.056863,"initial":"hdx","name":"海东西","pinyin":"haidongxi","lat":36.509917},{"poiid":"B038202CRU","index":"h","lon":110.162139,"initial":"hk","name":"海口","pinyin":"haikou","lat":20.026925},{"poiid":"B038202YP2","index":"h","lon":110.34216,"initial":"hkd","name":"海口东","pinyin":"haikoudong","lat":19.983298},{"poiid":"B01D600D0E","index":"h","lon":119.742729,"initial":"hle","name":"海拉尔","pinyin":"hailaer","lat":49.230648},{"poiid":"B01C50OGRL","index":"h","lon":129.553905,"initial":"hl","name":"海浪","pinyin":"hailang","lat":44.53977},{"poiid":"B01C500909","index":"h","lon":129.390843,"initial":"hl","name":"海林","pinyin":"hailin","lat":44.566275},{"poiid":"B01C700IFS","index":"h","lon":126.994711,"initial":"hl","name":"海伦","pinyin":"hailun","lat":47.467479},{"poiid":"B023D02TK0","index":"h","lon":120.687496,"initial":"hn","name":"海宁","pinyin":"haining","lat":30.535598},{"poiid":"B023D0Q2PJ","index":"h","lon":120.392651,"initial":"hnx","name":"海宁西","pinyin":"hainingxi","lat":30.438801},{"poiid":"B03A30B0EK","index":"h","lon":102.865929,"initial":"hsw","name":"海石湾","pinyin":"haishiwan","lat":36.341225},{"poiid":"B01B40M7PY","index":"h","lon":124.04686,"initial":"htz","name":"海坨子","pinyin":"haituozi","lat":45.274583},{"poiid":"","index":"h","lon":97.380884,"initial":"hxmgzzzzzz","name":"海西蒙古族藏族自治州","pinyin":"haiximengguzuzangzuzizhizhou","lat":37.315136},{"poiid":"B021704KWL","index":"h","lon":120.996507,"initial":"hy","name":"海阳","pinyin":"haiyang","lat":37.079662},{"poiid":"B0FFFQ2NF7","index":"h","lon":120.961762,"initial":"hyb","name":"海阳北","pinyin":"haiyangbei","lat":37.07005},{"poiid":"B01D60NS0I","index":"h","lon":120.082856,"initial":"hk","name":"哈克","pinyin":"hake","lat":49.19152},{"poiid":"B01D60NS0F","index":"h","lon":122.428153,"initial":"hls","name":"哈拉苏","pinyin":"halasu","lat":48.116375},{"poiid":"B0386003SK","index":"h","lon":93.510022,"initial":"hm","name":"哈密","pinyin":"hami","lat":42.848409},{"poiid":"B0FFF5TVZC","index":"h","lon":110.439234,"initial":"hc","name":"韩城","pinyin":"hancheng","lat":35.484432},{"poiid":"B02C80NXOX","index":"h","lon":113.816858,"initial":"hc","name":"汉川","pinyin":"hanchuan","lat":30.542708},{"poiid":"B01C60NC15","index":"h","lon":134.158519,"initial":"hcg","name":"寒葱沟","pinyin":"hanconggou","lat":47.9727},{"poiid":"B01360065D","index":"h","lon":114.475521,"initial":"hd","name":"邯郸","pinyin":"handan","lat":36.6034},{"poiid":"B01360NO40","index":"h","lon":114.558047,"initial":"hdd","name":"邯郸东","pinyin":"handandong","lat":36.617725},{"poiid":"B0FFFVTKWM","index":"h","lon":106.143782,"initial":"hfw","name":"韩府湾","pinyin":"hanfuwan","lat":36.566812},{"poiid":"B01DD0I1EC","index":"h","lon":107.036695,"initial":"hjq","name":"杭锦旗","pinyin":"hangjinqi","lat":40.271094},{"poiid":"B023B07ERI","index":"h","lon":120.182548,"initial":"hz","name":"杭州","pinyin":"hangzhou","lat":30.24304},{"poiid":"B023B08WDR","index":"h","lon":120.210619,"initial":"hzd","name":"杭州东","pinyin":"hangzhoudong","lat":30.292753},{"poiid":"B025201JVC","index":"h","lon":119.17191,"initial":"hj","name":"涵江","pinyin":"hanjiang","lat":25.490629},{"poiid":"B001B0JDH8","index":"h","lon":114.25542,"initial":"hk","name":"汉口","pinyin":"hankou","lat":30.619291},{"poiid":"B01A30NKEG","index":"h","lon":123.55764,"initial":"hl","name":"寒岭","pinyin":"hanling","lat":41.180998},{"poiid":"B013A0PZ5N","index":"h","lon":117.839486,"initial":"hmy","name":"韩麻营","pinyin":"hanmaying","lat":41.277945},{"poiid":"B0393001SD","index":"h","lon":108.506002,"initial":"hy","name":"汉阴","pinyin":"hanyin","lat":32.877525},{"poiid":"B034300E5E","index":"h","lon":102.906159,"initial":"hy","name":"汉源","pinyin":"hanyuan","lat":29.232341},{"poiid":"B03940036N","index":"h","lon":107.026723,"initial":"hz","name":"汉中","pinyin":"hanzhong","lat":33.090731},{"poiid":"B01CA0LVTV","index":"h","lon":129.63453,"initial":"hlh","name":"浩良河","pinyin":"haolianghe","lat":46.72701},{"poiid":"B01DC16G16","index":"h","lon":116.800485,"initial":"hlk","name":"好鲁库","pinyin":"haoluku","lat":42.990122},{"poiid":"B01E20MXTK","index":"h","lon":120.062974,"initial":"hrnl","name":"哈日努拉","pinyin":"harinula","lat":45.621891},{"poiid":"B01D800BC1","index":"h","lon":109.442696,"initial":"hyht","name":"哈业胡同","pinyin":"hayehutong","lat":40.625966},{"poiid":"B01D40LQLE","index":"h","lon":130.473909,"initial":"hb","name":"鹤北","pinyin":"hebei","lat":47.543612},{"poiid":"B0188004QZ","index":"h","lon":114.274757,"initial":"hb","name":"鹤壁","pinyin":"hebi","lat":35.761197},{"poiid":"B015E0109X","index":"h","lon":113.10085,"initial":"hb","name":"河边","pinyin":"hebian","lat":38.600205},{"poiid":"B01880LYI9","index":"h","lon":114.298063,"initial":"hbd","name":"鹤壁东","pinyin":"hebidong","lat":35.701614},{"poiid":"","index":"h","lon":107.559186,"initial":"hc","name":"河池","pinyin":"hechi","lat":24.975648},{"poiid":"B00178UW79","index":"h","lon":106.278149,"initial":"hc","name":"合川","pinyin":"hechuan","lat":29.958967},{"poiid":"B02F70NY8R","index":"h","lon":110.301263,"initial":"hc","name":"河唇","pinyin":"hechun","lat":21.695784},{"poiid":"B01D60NEZE","index":"h","lon":118.466022,"initial":"hehd","name":"赫尔洪得","pinyin":"heerhongde","lat":49.20198},{"poiid":"B022700CD7","index":"h","lon":117.316705,"initial":"hf","name":"合肥","pinyin":"hefei","lat":31.886296},{"poiid":"B022718IR2","index":"h","lon":117.247335,"initial":"hfbc","name":"合肥北城","pinyin":"hefeibeicheng","lat":32.078281},{"poiid":"B0FFF3K7UZ","index":"h","lon":117.291145,"initial":"hfn","name":"合肥南","pinyin":"hefeinan","lat":31.797465},{"poiid":"B01D4001ZW","index":"h","lon":130.284805,"initial":"hg","name":"鹤岗","pinyin":"hegang","lat":47.341148},{"poiid":"B078F13ZG7","index":"h","lon":103.352791,"initial":"hct","name":"黑冲滩","pinyin":"heichongtan","lat":37.638504},{"poiid":"B01C8004HK","index":"h","lon":127.502072,"initial":"hh","name":"黑河","pinyin":"heihe","lat":50.229085},{"poiid":"B036E14W30","index":"h","lon":101.741309,"initial":"hj","name":"黑井","pinyin":"heijing","lat":25.347694},{"poiid":"B01B40MHT7","index":"h","lon":122.828318,"initial":"hs","name":"黑水","pinyin":"heishui","lat":45.208078},{"poiid":"B01D30M16O","index":"h","lon":131.632446,"initial":"ht","name":"黑台","pinyin":"heitai","lat":45.410106},{"poiid":"B02150S441","index":"h","lon":118.2044,"initial":"hw","name":"黑旺","pinyin":"heiwang","lat":36.625483},{"poiid":"B03AA0NH45","index":"h","lon":104.834092,"initial":"hjd","name":"贺家店","pinyin":"hejiadian","lat":34.754478},{"poiid":"B0167007CL","index":"h","lon":110.731628,"initial":"hj","name":"河津","pinyin":"hejin","lat":35.586544},{"poiid":"B0FFGE748H","index":"h","lon":103.975882,"initial":"hkb","name":"河口北","pinyin":"hekoubei","lat":22.528903},{"poiid":"B03A30YRWB","index":"h","lon":103.452667,"initial":"hkn","name":"河口南","pinyin":"hekounan","lat":36.162814},{"poiid":"B01C60N1F5","index":"h","lon":130.2919,"initial":"hl","name":"鹤立","pinyin":"heli","lat":47.051448},{"poiid":"B0599000CO","index":"h","lon":128.996162,"initial":"hl","name":"和龙","pinyin":"helong","lat":42.550803},{"poiid":"B0FFFHFFQM","index":"h","lon":117.727498,"initial":"hly","name":"河洛营","pinyin":"heluoying","lat":41.393361},{"poiid":"B01C50OJS7","index":"h","lon":129.07448,"initial":"hdhz","name":"横道河子","pinyin":"hengdaohezi","lat":44.813258},{"poiid":"B01C40OZCH","index":"h","lon":124.961297,"initial":"hdy","name":"恒地营","pinyin":"hengdiying","lat":48.557547},{"poiid":"B0319009WL","index":"h","lon":117.601063,"initial":"hf","name":"横峰","pinyin":"hengfeng","lat":28.413603},{"poiid":"B0FFF5UX66","index":"h","lon":114.37402,"initial":"hgqd","name":"横沟桥东","pinyin":"henggouqiaodong","lat":29.934972},{"poiid":"B02DE03RXN","index":"h","lon":112.789855,"initial":"hsx","name":"衡山西","pinyin":"hengshanxi","lat":27.24927},{"poiid":"B013E003ID","index":"h","lon":115.686476,"initial":"hs","name":"衡水","pinyin":"hengshui","lat":37.746008},{"poiid":"B02DE02WPT","index":"h","lon":112.631759,"initial":"hy","name":"衡阳","pinyin":"hengyang","lat":26.889684},{"poiid":"B02DE03NHV","index":"h","lon":112.710842,"initial":"hyd","name":"衡阳东","pinyin":"hengyangdong","lat":26.896629},{"poiid":"B0FFF384VE","index":"h","lon":109.187724,"initial":"hp","name":"合浦","pinyin":"hepu","lat":21.622068},{"poiid":"B036814V6N","index":"h","lon":100.216516,"initial":"hq","name":"鹤庆","pinyin":"heqing","lat":26.548203},{"poiid":"B01C80MKWU","index":"h","lon":125.24265,"initial":"hs","name":"鹤山","pinyin":"heshan","lat":49.015891},{"poiid":"B0FFF01LIT","index":"h","lon":114.371898,"initial":"hsqd","name":"贺胜桥东","pinyin":"heshengqiaodong","lat":30.01978},{"poiid":"B0FFFCLK6F","index":"h","lon":86.270889,"initial":"hstlg","name":"和什托洛盖","pinyin":"heshituoluogai","lat":46.405585},{"poiid":"B0FFFXJENA","index":"h","lon":86.877441,"initial":"hs","name":"和硕","pinyin":"heshuo","lat":42.303846},{"poiid":"B03870MBGW","index":"h","lon":79.904545,"initial":"ht","name":"和田","pinyin":"hetian","lat":37.159047},{"poiid":"B0FFGH455F","index":"h","lon":110.091671,"initial":"hyb","name":"合阳北","pinyin":"heyangbei","lat":35.288835},{"poiid":"B02FA015ER","index":"h","lon":114.683673,"initial":"hy","name":"河源","pinyin":"heyuan","lat":23.764137},{"poiid":"B021206NUQ","index":"h","lon":115.507469,"initial":"hz","name":"菏泽","pinyin":"heze","lat":35.222635},{"poiid":"B06EE00GAZ","index":"h","lon":111.538681,"initial":"hz","name":"贺州","pinyin":"hezhou","lat":24.456177},{"poiid":"B02C9009L1","index":"h","lon":114.630969,"initial":"hax","name":"红安西","pinyin":"honganxi","lat":31.00294},{"poiid":"B034201CXI","index":"h","lon":102.622542,"initial":"hf","name":"红峰","pinyin":"hongfeng","lat":28.283629},{"poiid":"B001C8TPLO","index":"h","lon":103.945833,"initial":"hgz","name":"红光镇","pinyin":"hongguangzhen","lat":30.770419},{"poiid":"B035A00D6S","index":"h","lon":104.463656,"initial":"hg","name":"红果","pinyin":"hongguo","lat":25.714475},{"poiid":"B0FFFVT138","index":"h","lon":133.516127,"initial":"hh","name":"洪河","pinyin":"honghe","lat":47.592454},{"poiid":"","index":"h","lon":103.431951,"initial":"hhhnzyzzzz","name":"红河哈尼族彝族自治州","pinyin":"honghehanizuyizuzizhizhou","lat":23.373861},{"poiid":"B01DC16G0P","index":"h","lon":118.631181,"initial":"hhg","name":"红花沟","pinyin":"honghuagou","lat":42.243936},{"poiid":"B036E14W36","index":"h","lon":101.869176,"initial":"hj","name":"红江","pinyin":"hongjiang","lat":25.902877},{"poiid":"B0FFFGNW5N","index":"h","lon":106.427229,"initial":"hq","name":"宏庆","pinyin":"hongqing","lat":33.848618},{"poiid":"B01C40OZB4","index":"h","lon":123.913146,"initial":"hqy","name":"红旗营","pinyin":"hongqiying","lat":47.116255},{"poiid":"B01DA14VS8","index":"h","lon":113.204965,"initial":"hsb","name":"红砂坝","pinyin":"hongshaba","lat":40.690157},{"poiid":"B01CA0M7E7","index":"h","lon":129.026315,"initial":"hs","name":"红山","pinyin":"hongshan","lat":47.983466},{"poiid":"B03AF0MN0P","index":"h","lon":104.061453,"initial":"hsx","name":"红砂岘","pinyin":"hongshaxian","lat":36.609425},{"poiid":"B03B90MMMY","index":"h","lon":106.067694,"initial":"hsb","name":"红寺堡","pinyin":"hongsibu","lat":37.4491},{"poiid":"B016500646","index":"h","lon":111.667503,"initial":"ht","name":"洪洞","pinyin":"hongtong","lat":36.259417},{"poiid":"B0FFFEVC0A","index":"h","lon":111.579966,"initial":"htx","name":"洪洞西","pinyin":"hongtongxi","lat":36.253166},{"poiid":"B03AF00F9C","index":"h","lon":104.087227,"initial":"hxt","name":"红岘台","pinyin":"hongxiantai","lat":36.791939},{"poiid":"B01CA005DA","index":"h","lon":129.386276,"initial":"hx","name":"红星","pinyin":"hongxing","lat":48.235308},{"poiid":"B01D50LRTV","index":"h","lon":131.596322,"initial":"hxl","name":"红兴隆","pinyin":"hongxinglong","lat":46.725417},{"poiid":"B01D60NS06","index":"h","lon":124.983159,"initial":"hy","name":"红彦","pinyin":"hongyan","lat":49.513105},{"poiid":"B0165003JZ","index":"h","lon":111.35917,"initial":"hm","name":"侯马","pinyin":"houma","lat":35.615701},{"poiid":"B0FFFEXTMR","index":"h","lon":111.288144,"initial":"hmx","name":"侯马西","pinyin":"houmaxi","lat":35.602137},{"poiid":"B02940MWBK","index":"h","lon":115.124462,"initial":"hm","name":"鲘门","pinyin":"houmen","lat":22.812871},{"poiid":"B013A0QMZ7","index":"h","lon":117.029501,"initial":"hs","name":"猴山","pinyin":"houshan","lat":40.815607},{"poiid":"B018700TG1","index":"h","lon":113.009349,"initial":"hz","name":"后寨","pinyin":"houzhai","lat":35.282401},{"poiid":"B035A0N98D","index":"h","lon":105.619811,"initial":"hc","name":"化处","pinyin":"huachu","lat":26.208976},{"poiid":"B01DA00C6U","index":"h","lon":114.039296,"initial":"hd","name":"化德","pinyin":"huade","lat":41.896606},{"poiid":"B0FFF5K77W","index":"h","lon":115.022105,"initial":"hh","name":"花湖","pinyin":"huahu","lat":30.259156},{"poiid":"B020505D1W","index":"h","lon":119.031445,"initial":"ha","name":"淮安","pinyin":"huaian","lat":33.649284},{"poiid":"B0231007DB","index":"h","lon":116.802137,"initial":"hb","name":"淮北","pinyin":"huaibei","lat":33.96763},{"poiid":"B0178008ZS","index":"h","lon":115.403977,"initial":"hb","name":"淮滨","pinyin":"huaibin","lat":32.498073},{"poiid":"B02E9017PL","index":"h","lon":109.968105,"initial":"hh","name":"怀化","pinyin":"huaihua","lat":27.557886},{"poiid":"B02E9017OV","index":"h","lon":109.992737,"initial":"hhn","name":"怀化南","pinyin":"huaihuanan","lat":27.511384},{"poiid":"B0FFFRJO0K","index":"h","lon":112.159035,"initial":"hj","name":"怀集","pinyin":"huaiji","lat":23.892505},{"poiid":"B022A02394","index":"h","lon":117.027663,"initial":"hn","name":"淮南","pinyin":"huainan","lat":32.630975},{"poiid":"B022A0OCJI","index":"h","lon":117.153261,"initial":"hnd","name":"淮南东","pinyin":"huainandong","lat":32.647956},{"poiid":"B015D000OB","index":"h","lon":113.098376,"initial":"hr","name":"怀仁","pinyin":"huairen","lat":39.832981},{"poiid":"B0FFFA8TJH","index":"h","lon":113.162555,"initial":"hrd","name":"怀仁东","pinyin":"huairendong","lat":39.792118},{"poiid":"B000A7HU2Y","index":"h","lon":116.648932,"initial":"hr","name":"怀柔","pinyin":"huairou","lat":40.316631},{"poiid":"B000A7PEYA","index":"h","lon":116.693598,"initial":"hrb","name":"怀柔北","pinyin":"huairoubei","lat":40.408612},{"poiid":"B035A0NJD2","index":"h","lon":104.482669,"initial":"hjz","name":"花家庄","pinyin":"huajiazhuang","lat":25.784873},{"poiid":"B01C501NTI","index":"h","lon":129.671271,"initial":"hl","name":"桦林","pinyin":"hualin","lat":44.674087},{"poiid":"B01C600688","index":"h","lon":130.583953,"initial":"hn","name":"桦南","pinyin":"huanan","lat":46.243722},{"poiid":"B01B30MNRO","index":"h","lon":126.340811,"initial":"hb","name":"黄柏","pinyin":"huangbai","lat":41.337111},{"poiid":"B0178002EF","index":"h","lon":115.101864,"initial":"hc","name":"潢川","pinyin":"huangchuan","lat":32.109359},{"poiid":"B000A078F3","index":"h","lon":116.330449,"initial":"hc","name":"黄村","pinyin":"huangcun","lat":39.720979},{"poiid":"B0FFFGWA10","index":"h","lon":114.947591,"initial":"hg","name":"黄冈","pinyin":"huanggang","lat":30.485864},{"poiid":"B0FFF67639","index":"h","lon":114.989547,"initial":"hgd","name":"黄冈东","pinyin":"huanggangdong","lat":30.50868},{"poiid":"B0FFF9RNTP","index":"h","lon":114.88765,"initial":"hgx","name":"黄冈西","pinyin":"huanggangxi","lat":30.506156},{"poiid":"B0FFFGPFT5","index":"h","lon":128.368802,"initial":"hgx","name":"荒沟西","pinyin":"huanggouxi","lat":42.55615},{"poiid":"B036E0IDMG","index":"h","lon":101.86412,"initial":"hgy","name":"黄瓜园","pinyin":"huangguayuan","lat":25.824318},{"poiid":"B0FFFRK7GH","index":"h","lon":113.533012,"initial":"hhjq","name":"黄河景区","pinyin":"huanghejingqu","lat":34.931862},{"poiid":"B01DB0NB9E","index":"h","lon":120.959276,"initial":"hht","name":"黄花筒","pinyin":"huanghuatong","lat":43.148094},{"poiid":"B0FFFGNWOW","index":"h","lon":118.205991,"initial":"hjd","name":"黄家店","pinyin":"huangjiadian","lat":41.969059},{"poiid":"B022D02465","index":"h","lon":116.686786,"initial":"hk","name":"黄口","pinyin":"huangkou","lat":34.361413},{"poiid":"B038F0OCO4","index":"h","lon":109.354274,"initial":"hl","name":"黄陵","pinyin":"huangling","lat":35.62038},{"poiid":"B0FFGBIQJ1","index":"h","lon":109.386645,"initial":"hln","name":"黄陵南","pinyin":"huanglingnan","lat":35.582878},{"poiid":"B0AF20005S","index":"h","lon":108.830925,"initial":"hl","name":"黄流","pinyin":"huangliu","lat":18.528352},{"poiid":"B02C900COG","index":"h","lon":115.943568,"initial":"hm","name":"黄梅","pinyin":"huangmei","lat":30.094753},{"poiid":"B05990MT0Z","index":"h","lon":128.015254,"initial":"hnh","name":"黄泥河","pinyin":"huangnihe","lat":43.554601},{"poiid":"B022F0020T","index":"h","lon":118.321283,"initial":"hs","name":"黄山","pinyin":"huangshan","lat":29.722491},{"poiid":"B0FFFH8S1V","index":"h","lon":118.272439,"initial":"hsb","name":"黄山北","pinyin":"huangshanbei","lat":29.815636},{"poiid":"B02CA00NZG","index":"h","lon":114.940975,"initial":"hs","name":"黄石","pinyin":"huangshi","lat":30.152628},{"poiid":"B02CA0MX4Z","index":"h","lon":115.006329,"initial":"hsb","name":"黄石北","pinyin":"huangshibei","lat":30.210099},{"poiid":"B01B00QUYF","index":"h","lon":127.724019,"initial":"hsd","name":"黄松甸","pinyin":"huangsongdian","lat":43.645448},{"poiid":"B03B70Q2NM","index":"h","lon":106.022328,"initial":"hyt","name":"黄羊滩","pinyin":"huangyangtan","lat":38.267346},{"poiid":"B0FFHN72MU","index":"h","lon":102.838794,"initial":"hyz","name":"黄羊镇","pinyin":"huangyangzhen","lat":37.659049},{"poiid":"B0FFH6RJPE","index":"h","lon":101.241872,"initial":"hy","name":"湟源","pinyin":"huangyuan","lat":36.68396},{"poiid":"B02C90PRLO","index":"h","lon":115.005288,"initial":"hz","name":"黄州","pinyin":"huangzhou","lat":30.586576},{"poiid":"B01C600Q0M","index":"h","lon":133.063458,"initial":"hxt","name":"换新天","pinyin":"huanxintian","lat":47.361461},{"poiid":"B032C0MKFR","index":"h","lon":101.911112,"initial":"hpz","name":"花棚子","pinyin":"huapengzi","lat":26.257849},{"poiid":"B01B00269F","index":"h","lon":126.227875,"initial":"hpc","name":"桦皮厂","pinyin":"huapichang","lat":43.996808},{"poiid":"B02000KAEC","index":"h","lon":121.044025,"initial":"hq","name":"花桥","pinyin":"huaqiao","lat":31.335278},{"poiid":"B0FFG9045S","index":"h","lon":114.789233,"initial":"hrd","name":"华容东","pinyin":"huarongdong","lat":30.53189},{"poiid":"B0FFFPYBNR","index":"h","lon":114.776517,"initial":"hrn","name":"华容南","pinyin":"huarongnan","lat":30.442438},{"poiid":"B03910N3X8","index":"h","lon":110.138371,"initial":"hs","name":"华山","pinyin":"huashan","lat":34.552572},{"poiid":"B0391016SJ","index":"h","lon":110.101353,"initial":"hsb","name":"华山北","pinyin":"huashanbei","lat":34.582948},{"poiid":"B0FFFDH8RH","index":"h","lon":114.511537,"initial":"hsn","name":"花山南","pinyin":"huashannan","lat":30.528197},